"airtableID","Primary Field","Place","Local place","City","County/township","State/province/territory","Country","Latitude","Longitude","Name [Region]","[Universities]","[events]","[people] Country of Nationality","[people] Place of Birth",":[works]","[publications]","[publishers]"
"recK2YnurFaPeT5UN","Uganda |  | Wakiso District |  | Busi Island | Bussi Island","Bussi Island","Busi Island","","Wakiso District","","Uganda","0.04917","32.32667","East Africa","","","","['recpBBsGDX0I74oed']","","",""
"recxPOx9xARN3FV2T","United States |  |  |  |  | Washington","Washington","","","","","United States","47.7510741","-120.7401385","North America","","","['recudGgzO4XgX1dXC']","['recZxqG7qr7gA3Haq']","","","['recC3mUg9T8WQw3ij']"
"recYFNdwC34eYWVwZ","New Zealand |  |  |  |  | Wanganui","Wanganui","","","","","New Zealand"," - "," - ","Oceania","","","","['recxlGhVC45Z20VPD']","","",""
"recLfWyLrsRLtd51X","Portugal |  |  | Lisbon |  | Setubal","Setubal","","Lisbon","","","Portugal","38.7222524","-9.1393366","Europe","","['recTCkP8EbS1ZCUDK']","","","","",""
"recTY1ORZv4IBnceP","England |  |  | London |  | Queen Elizabeth Hall","Queen Elizabeth Hall","","London","","","England","51.5067425","-0.1161024","United Kingdom","","['recETcngUZCEJMt1r']","","","","",""
"recsBnV1nKUf3GeMS","England  |  | Dorset |  |  | Poole","Poole","","","Dorset","","England "," - "," - ","United Kingdom","","","","['recno5KS7BHreRFzg']","","",""
"recNrUgXDk0Lw29Sk","England |  |  | London |  | Nash House","Nash House","","London","","","England","51.5290118","-0.2504219","United Kingdom","","['recIztps15FgnRsOA']","","","","",""
"rec5f4AHtXBwKLpS7","France |  |  | Cher |  | La Chapelle-d'Angillon","La Chapelle-d'Angillon","","Cher","","","France","47.363586","2.433502","Europe","","","","['rec9fhI0T3hsTscfR']","","",""
"recCzDgrRwMRI8ibg","England |  |  | London |  | Institute for Contemporary Arts","Institute for Contemporary Arts","","London","","","England","51.5063335","-0.1309615","United Kingdom","","['recUZBikChUm00XZ8', 'recYIkzFlhemFCEOJ']","","","","",""
"recBlP1WOQ6JRMeB0","England |  |  | London |  | Hackney","Hackney","","London","","","England","51.573445","-0.0724376","United Kingdom","","","","['recnDRo279dqqGP20']","","",""
"reckMCDwgXYTZio0M","England |  |  | London |  | Commonwealth Institute","Commonwealth Institute","","London","","","England","51.4998973","-0.200244","United Kingdom","","['recF7ZQrK55WrAcFb']","","","","",""
"reczOH4zYOCBrtQ75","England |  |  |  |  | Carlisle","Carlisle","","","","","England"," - "," - ","United Kingdom","","","","['recmScrK6E3w18lqG']","","",""
"recbRp72VTowD4gAe","England |  | Kent | Canterbury |  | Canterbury","Canterbury","","Canterbury","Kent","","England","51.2802","1.0789","United Kingdom","['recsEVCWVTSAhOiq8']","","","","","",""
"recL25HtzSDyrmltw","Central African Republic |  |  |  |  | Bobangui","Bobangui","","","","","Central African Republic","4.0421547","18.1134546","Central Africa","","","","['rec1QbTtVhqKZuWFN']","","",""
"rec0OiWNRApOUioz4","Nigeria |  |  |  |  | Abeokuta","Abeokuta","","","","","Nigeria","7.147502","3.3619356","West Africa","","","","['recVwoYXuX5s4xHUl', 'rec0eJOax05iFJded', 'rec3ZtonSYvLEdt67', 'recPqIDKHXZk2QcNe', 'recrkX4daZNLsq0cZ']","","",""
"recbIpbmo6LLdlz2m","United States | Missouri |  | St. Louis |  | ","","","St. Louis","","Missouri","United States","38.6270025","-90.1994042","North America","['recdNlwMsvGvsFSN9', 'recaBy5itAvb4EUHx']","","","['recx4toxfq1chRr5W', 'rechnk9cJzoF8ssX5']","","",""
"recbL2qfCtuVzDuuW","Jamaica |  |  |  |  | ","","","","","","Jamaica","18.109581","-77.297508","Caribbean","","","","['recVudi6kQ1lueeBF', 'rec9hddEE67sHfLCy', 'recpk1W3JUReuNMS3', 'rec3uZ9DCKLPsQEUj', 'recUp6195LGoxSR19', 'recaVf3OuKumwmIi4', 'rec6PlXzrbdWTTNcm', 'recDMSrOFClcqvQQ2', 'recnNo2AZcgZULnQh', 'recrYx78qDu7qEAGY', 'recBLzlpjoAVHjL78']","","",""
"recbtQlXLgHNARiFi","Czech Republic |  |  |  |  | ","","","","","","Czech Republic","49.817492","15.472962","Europe","","","","['recTpqDAgxbdpbCe0', 'rec63qK1F4TjCWJkm', 'recqBZNWCjaQwg4Du', 'recyxY2anj2aMDaAW']","","",""
"recbYK7V9Plymm4q2","Kenya |  | Nandi County | Kapsabet |  | ","","","Kapsabet","Nandi County","","Kenya","0.202957","35.0978385","East Africa","['reclXkR5WWqI1ZHXO']","","","","","",""
"recbahZRa0pm47u5x","Spain |  |  | Baena |  | ","","","Baena","","","Spain","37.617362","-4.3244513","Europe","","","","['recCeA1y1SQuRapdJ']","","",""
"reccJ3NpqtjBETJZn","Algeria |  |  | Mazouna |  | ","","","Mazouna","","","Algeria","36.12647","0.8906102","North Africa","","['rec5QTXygRJUaGBBm']","","","","",""
"reccmZIG8WaCtw0My","United States | Massachusetts |  | Cambridge |  | ","","","Cambridge","","Massachusetts","United States","42.3736158","-71.1097335","North America","['rech58muDl0CYb53E']","['rec6PRoQdtwGX8LCX']","","","","","['rec7ssgNqHlPi0rvl']"
"reccuXG2jLTKwHpVN","Barbados |  |  |  |  | ","","","","","","Barbados","13.193887","-59.543198","Caribbean","","","","['recLmSnzhCEAs0MeP', 'rec4DM7r01l0gfaxz', 'rec6yVFxzcQdvlcrG']","","",""
"reccuqlnuwJCHOrtJ","Trieste, Kingdom of Italy |  |  |  |  | ","","","","","","Trieste, Kingdom of Italy","45.6495264","13.7768182","Europe","","","['recbOU2C0aStT22I5']","['recbOU2C0aStT22I5']","","",""
"recczj69e3i13HFrd","Ghana |  |  | Cape Coast |  | ","","","Cape Coast","","","Ghana","5.13151","-1.2794744","West Africa","['rec0HXAX6qjS5rR7z']","","","['recZPYdhrLPpBpY4E', 'recQT0enOglLdfkpA', 'recMtz94K601qz8dX', 'recn296ySj9qChslR']","","",""
"recc4QPHYIVsDWPMx","Nigeria |  |  | Iruekpen-Ekpoma |  | ","","","Iruekpen-Ekpoma","","","Nigeria","6.763227","6.049313","West Africa","","","","['recP34XkRR1kXmqdp']","","",""
"recddAg96Fmfft8uF","Yugoslavia |  |  |  |  | ","","","","","","Yugoslavia","43.6876095","-79.4121417","Europe","","","","['recmGpVJVggDDJTex']","","",""
"recdmzHJTksmBYBa6","United States | California |  | Los Angeles |  | ","","","Los Angeles","","California","United States","34.0522342","-118.2436849","North America","['recUbgpZNpbEPLJ5V', 'recyAsUhouuImQxGF']","","","['rec7LvM7jd3qbsArX']","","","['recR39NoWWMuOJoDO']"
"recdBVvHUkpHC3vNk","Nigeria |  |  | Bomoundi |  | ","","","Bomoundi","","","Nigeria","9.06146","7.50064","West Africa","","","","['recUiPx4caoRhWvaM']","","",""
"recefMNVPiIGeuTeC","South Africa |  |  | Pearston |  | ","","","Pearston","","","South Africa","-32.5795387","25.1385192","Southern Africa","","","","['recu43DbrUayW9AhJ']","","",""
"recesdnoCDNCstSIs","Nigeria |  |  | Ibadan |  | ","","","Ibadan","","","Nigeria","7.3775355","3.9470396","West Africa","['reclpHNGTKzlJ6PFd']","['recIXGYIXDTJJA0tZ', 'rec6EUGd5CWwAC6WP', 'recQRzhoeaVF28IXQ']","","['recNRVArTRZ9V0LgF']","","","['reczBa1Vg3ko79ujM', 'recsbhF8jfAiLQIpI', 'recX8QLIf2DpCzLvf']"
"recetXlxCcxKVgwta","France |  |  | Toulouse |  | ","","","Toulouse","","","France","43.604652","1.444209","Europe","['recWZUqvy9UDKKCoH']","","['recNDFQ2QoHvwrtKg']","","","",""
"recezY5nCGoheDHPP","Senegal |  |  | Saint-Louis |  | ","","","Saint-Louis","","","Senegal","16.0326307","-16.4818167","West Africa","","","","['recce49CVohdYLw2s']","","",""
"receN0Fkb8XY9LX19","France |  |  | Bordeaux |  | ","","","Bordeaux","","","France","44.837789","-0.57918","Europe","['reccHWEEvoEBozrVG']","","","['recK4TZnSTzzUQFzj']","","",""
"receZkyG9GibLM5P3","Malawi |  |  | Zomba |  | ","","","Zomba","","","Malawi","-15.3765857","35.3356518","East Africa","['recLCXrfsIZcWDys6']","","","","","",""
"recfFisKhi7RjZymO","Australia |  |  |  |  | ","","","","","","Australia","-25.274398","133.775136","Oceania","","","['recG3aknQoFlrowIR', 'recrZbHUPwhGFaUai', 'recppmn5TIRgY4Gje', 'recmKxr3Npu8neZ9l', 'recL2cAjfMfyVeU7Y', 'rec7wAHVxo0a23WaU']","['rec7wAHVxo0a23WaU', 'recygAjbRAif4tNkm', 'recMm2Y1QjtCdWl4t', 'recFeijCpLM3fMFKm', 'recBbdyA8ohLP9D0v', 'recM8bLCc3XsYvGJe', 'recX5ukP8vITDX76b', 'recGUGeciDmcghXLs', 'recalz6iMgrXonttT', 'recrzJtE4YXcEDnCj', 'recHDFpmCUjfsRHzD', 'recAwACqSox6O9PjZ']","","",""
"recfIcl7v6SgmqwkD","Scotland |  |  | Edinburgh |  | ","","","Edinburgh","","","Scotland","55.953252","-3.188267","United Kingdom","['reciXy4sN3jGCQAuj']","['rec93QTQMgFvtDAOp']","","['recaQR4MFonvM8PUB', 'recOipuhtR3MsEwmi', 'reccZ7R9Kkzxw0uo7', 'rec30TcM5WxterS4s', 'recxTRitCMfwpPQcV', 'recN9mGO0tDVrTgFe', 'recIjfL3tp53F2soq', 'reckm5MbR4S5enPi5', 'recHzXIe2198kRhr5', 'recoLTma7dDD3aWmR', 'recoY3dZkUuvYmYPH']","","","['rec9rJE4Sio33chZO', 'recxahbpYjxv9CYHB']"
"recfKJuqzgZa15V7H","China |  |  |  |  | ","","","","","","China","35.86166","104.195397","East Asia","","","","['recbjtGS6xZkw3lH6']","","",""
"recfLlmreMDQRh3Wq","Argentina |  |  |  |  | ","","","","","","Argentina","-38.416097","-63.616672","South America","","","","['recsNlPU8A1BavLgx', 'recKZmySn9FYkTvNb']","","",""
"recfn7C3aEZYad5Uf","South Sudan |  |  |  |  | ","","","","","","South Sudan","6.8769919","31.3069788","North Africa","","","['recGE7Fcz5oCLV3Qn', 'rec5XPPMVyBi0yXRR']","","","",""
"recfAeBmukDxwvWgv","United States | Pennsylvania |  |  |  | ","","","","","Pennsylvania","United States","41.2033216","-77.1945247","North America","","","","['rec1BVHoI6YxBdye3', 'recrymqHW1VIrTu1b', 'recjxSCC4hmyAfl2p']","","",""
"recf7JqjvzkZAhUJm","Ghana |  |  | Kumasi |  | ","","","Kumasi","","","Ghana","6.6666004","-1.6162709","West Africa","","","","['rec2pS0yf3sRau5tW', 'recWpCJL7I7DpeCu4']","","",""
"recgls4djBp1PiqGS","Portugal |  |  | Lisbon |  | ","","","Lisbon","","","Portugal","38.7222524","-9.1393366","Europe","['rectjkgPE8BBNgDrB']","['rec4WuERtWfsBvdLY']","","['recZE3ddfNYTNBbfn', 'rec16LWLsTCRqRZtx']","","",""
"recga4L7t4xbKHVKq","Mozambique |  |  | Beira |  | ","","","Beira","","","Mozambique","-19.8315949","34.8370183","East Africa","","","","['recpBZAd7n0hfg0pz']","","",""
"rechf0EYevTMYsuBc","Guyana |  |  |  |  | ","","","","","","Guyana","4.860416","-58.93018","South America","","","","['rec7K9Ko9eVOxZLJI', 'recvppMii5R7tKjcq', 'rec2rm5u4Hssh9VLO', 'recWSIIflYLOZNVw3', 'recVwYHJyK3aDStpO']","","",""
"rechwHQC1CkaAoQku","Ireland |  |  | Dublin |  | ","","","Dublin","","","Ireland","53.3498053","-6.2603097","Europe","['recQnH5mnkQalI2T4']","['rec9Qe0Y3aGZiHdWR']","","['recEQd4SsTTr25hJ1', 'recI7RKKlxAPM2YQz', 'recJl7UlLVvsquc1G']","","",""
"rechUxcoMhBbl1Zwc","South Africa |  |  | Port Elizabeth |  | ","","","Port Elizabeth","","","South Africa","-33.9608369","25.6022423","Southern Africa","","","","['recU0GqypnmAL84T5', 'rec5u5EboCvGp0QZS', 'recutLVTf8Hg91tI1', 'recnmE70GekcsOfhr']","","",""
"rechXxEReQlGKd2ar","Nigeria |  |  | Lagos |  | ","","","Lagos","","","Nigeria","6.5243793","3.3792057","West Africa","['recGBxRAscKN1dM98']","['recZ1w6uU9M9CvCPl', 'recI26loAFxyIK5z0', 'rechr0DoGMiNtQnqG', 'recha1dEBIVCV3Yn4', 'recKQe4qqeAQuqS6m', 'recz4yvFcq0VMnnQT', 'recOyhdK9lMhtJrgw', 'recEU4NtjYNQNCWqB']","","['recIEuCEh4zUIwGmh', 'recWQNkdVW2px2CN2', 'reczUdGWmvdPDQGWM', 'recElZbHLM826DE8M', 'recUVsubplzjVZezn', 'recGf13LbvVCiPL12', 'recZbPmoZLy4O4Jrr', 'recHTzLNuZMbjjuRc']","","","['recrludAIg5YRTHRq', 'recrNXFsiegJBSEbz', 'recf0IQOjUVt9CxwS', 'recRh6QKhccuYgR59']"
"rech01g2XJkHThsx0","South Africa |  |  | Roodepoort |  | ","","","Roodepoort","","","South Africa","-26.1201355","27.9014654","Southern Africa","","","","['recZS4g43q5Io7CpK']","","",""
"rech7DPr9kKTEHM49","Gambia |  |  |  |  | ","","","","","","Gambia","13.443182","-15.310139","West Africa","","","['reccvo8NMj2CiOdaP', 'recjnGnHuF9E90BA7']","","","",""
"reciCEKigOI6voj2K","Netherlands |  |  |  |  | ","","","","","","Netherlands","52.132633","5.291266","Europe","","","['recqPWlAqJDgH9c69']","['recaRYIeetLSJ9IQk']","","",""
"recitnDGDPjcN3s5w","South Africa |  |  | Kroonstad |  | ","","","Kroonstad","","","South Africa","-27.6372514","27.2323367","Southern Africa","","","","['rectR28bCv8ff49mc']","","",""
"reciAxI9Y75m5wiDT","Lebanon |  |  |  |  | ","","","","","","Lebanon","33.854721","35.862285","Middle East","","","","['recLZ7US1onjxZTyV']","","",""
"reciB5ckJpIbEygky","South Africa |  |  | Bloemfontein |  | ","","","Bloemfontein","","","South Africa","-29.085214","26.1595761","Southern Africa","","['recCwfskxExpGfNIC']","","","","",""
"reciM4I0QgB8f2tex","Wales |  | Carmarthenshire | Trelech |  | ","","","Trelech","Carmarthenshire","","Wales","51.94474","-4.500868","United Kingdom","","","","['rec9C9KiiLJAEiVds']","","",""
"reci0hD68YBrS4b2j","Ivory Coast |  |  |  |  | ","","","","","","Ivory Coast","7.539989","-5.54708","West Africa","","","['rec11TfWLtdgg0lSe']","","","",""
"recjqZwwOMtjAH727","South Africa |  |  | Pietersburg |  | ","","","Pietersburg","","","South Africa","-23.8961708","29.4486263","Southern Africa","","","","['rechXmQTzrc8eiWTu']","","",""
"recjREHxKt2UigzbD","Ghana |  |  | Saltpond |  | ","","","Saltpond","","","Ghana","5.2023106","-1.0514312","West Africa","","","['rec7oRG8Jb3zFiSYI']","['rec7oRG8Jb3zFiSYI']","","",""
"reckgtPvEY0Eb6W6W","United States | Michigan |  | Kalamazoo |  | ","","","Kalamazoo","","Michigan","United States","42.2917069","-85.5872286","North America","['recrWLssjTflVtD0F']","","","['rec7RjtOyyFA7iqTx']","","",""
"reckjgX4vwzlnzcE0","Zimbabwe |  |  |  |  | ","","","","","","Zimbabwe","-19.015438","29.154857","Southern Africa","","","['rec6AGwjH7PImbAAF', 'rec27lGFoJpJNTgpi', 'receHtHhFQLgIEGYe', 'recqbDnOTO3TrQiMC', 'rechh4TRNrVgZbGqt', 'recO9FKEa52lghKi9', 'rechNjPdO1S74YOgG', 'reciYl0J4enOHGrWs', 'recPiz4uW1sJ6FXRf', 'recSuBsUOK8gUT9nB', 'recWjhrxnroWNyGz3', 'recXh2L64mmM6biXg', 'rec3pi2Sm1qAhCu6d', 'recaxTU5bsgfpl41O', 'recoaQiFc0JoOewcW', 'recqazw9KdIcBHTdr', 'recysvGwnFYn5Xl5V', 'recCLiCVvtTv60RSn', 'recFBtKQNeaR78CD7']","['rec6AGwjH7PImbAAF', 'recoH0t7NonnC4gvf', 'recv9QeengHWIeWT2', 'reckvvijDnDm53Q9h', 'reciKnMGJoWJoEujC', 'rec8lwwcfPA42MroD']","","",""
"reckjP9FWupbGZpxq","Cameroon |  |  | Douala |  | ","","","Douala","","","Cameroon","4.0510564","9.7678687","Central Africa","","","","['recaEXdUYZk3OmqFS', 'recd8tFYoPRwKN9XA']","","",""
"reckyWszM3TP58w1N","Czech Republic |  |  | Teplice |  | ","","","Teplice","","","Czech Republic","50.6444579","13.835284","Europe","","","","['recBJcbdVcUytCiWZ', 'recRyP7J0gSNHyDcc']","","",""
"reckyxi4BnnhhZ5nF","South Africa |  |  | KwaZulu-Natal |  | ","","","KwaZulu-Natal","","","South Africa","-28.5305539","30.8958242","Southern Africa","['recrVXL7B3QAHozEj']","['rec2t6Mnjxq2594U7']","","['rec9R8HNlWmIM3Kc1', 'recO7fQ9N6fKpWsLF', 'recLITWzgFk9GhBof', 'recyXHVYu8fKSWw7Y', 'recadtLJpZ7UmXMXd', 'recBfxsV4N4W5BkaI', 'recosoXsmLiM3WNFM']","","","['recEWuPyr72hp502q', 'recdLHmxGYcEuiwdk', 'rec1A03SZHyn2YohP']"
"reckYc4fBX8zNzPHT","United States | New Hampshire |  | Portsmouth |  | ","","","Portsmouth","","New Hampshire","United States","43.0717552","-70.7625532","North America","","","","","","","['recKkNwvXwxWNXvFT']"
"reck7rbt8DZuwaZSO","United States | Massachusetts |  | Boston |  | ","","","Boston","","Massachusetts","United States","42.3600825","-71.0588801","North America","['reczRY122RSZi3d8D']","","","","","","['reczCvq5MZvA9Zlax']"
"recLgjpo7oPxVG4LM","United States | New Jersey |  |  |  | ","","","","","New Jersey","United States","40.0583238","-74.4056612","North America","","","","['recDPByzZTh3qi8rB', 'recJVaGYfAUait99I', 'recZ8qeJ4qebfSAfS']","","",""
"recLmeiLpn2d5oHcV","United States | New York |  | Rhinebeck |  | ","","","Rhinebeck","","New York","United States","41.9318294","-73.9074372","North America","","","","","","","['recDqH1MHTodcxbq6']"
"recLQPrQYUH97MCiG","British India |  |  |  |  | ","","","","","","British India"," - "," - ","South Asia","","","","['recyt8mKkvVgZbqLe', 'rectXcW6PYd0IRJ5p', 'recPISYrJqZ639QOR', 'recd68frKCjgc3cQZ']","","",""
"recLYdmygEcN1mwH6","Mozambique |  |  |  |  | ","","","","","","Mozambique","-18.665695","35.529562","East Africa","","","['recTIj8MZIMPLpuTZ', 'recquWmz6Yw7nOjHz', 'recyTxiQwNv5dek4g']","['recNmMvtCHPbu9s2L', 'rechlIrr6boqmotNh', 'recxUY9Zj3uDwtudT', 'recTIj8MZIMPLpuTZ']","","",""
"recL9Ygk9XUH16OOc","South Africa |  |  | Stellenbosch |  | ","","","Stellenbosch","","","South Africa","-33.9321045","18.860152","Southern Africa","['rece1L9bl6kn7HZTA']","","","['recIYP7wIGHjr9az0']","","",""
"recNHqLPj6mI49ZDJ","Tunisia |  |  | Tunis |  | ","","","Tunis","","","Tunisia","36.8064948","10.1815316","North Africa","['reckGlPEfDxCeZOTj']","","","","","","['recqXwkGSfWXSY8AI', 'recd7gEU0pn15MCJL']"
"recNK7bMWhM3ufgLq","Italy |  |  |  |  | ","","","","","","Italy","41.87194","12.56738","Europe","","","['recJJzgwMqXBkW23H', 'recKi5nFSqoH8hL9f', 'recR4PFXORlcS7zYW']","['recRpKnJxEUJsOma0', 'reckc9TPPSdumVz1c', 'recO8SjkpMsxAuOMH', 'recpiTnMEa0FdUVF9', 'recF4DydcK6M1DnKQ', 'recQXXW0zlAZWlpEi', 'recX0uvKeAvxRSRC8', 'recNxikun3JnQUoGt', 'reczx2ag0c7uo9dSz', 'recYYDKUoImdJYhNU', 'recx5A1U4m0kWdZvY', 'recXsTaxS6K4LSDoE', 'recivDjfIurTdysqM']","","",""
"recNnxW2CNOO0TalP","Turkey |  |  |  |  | ","","","","","","Turkey","38.963745","35.243322","Europe","","","","['recnBhOe8niwXYsaT']","","",""
"recNvMkXznFNikYOk","Colony of Southern Rhodesia |  |  |  |  | ","","","","","","Colony of Southern Rhodesia"," - "," - ","Southern Africa","","","['recaLBDKPomp4cstB']","","","",""
"recNNQjKCOyCOf7NO","United States | South Dakota |  |  |  | ","","","","","South Dakota","United States","43.9695148","-99.9018131","North America","","","","['recqShZMmQlfvsRjc', 'recPV6Lf5QOsI819N']","","",""
"recN8YyhqzPL29ffJ","The Gambia |  |  | Bathurst |  | ","","","Bathurst","","","The Gambia","13.4548761","-16.5790323","West Africa","","","","['reclWrAtLFoZ7O1Vo']","","",""
"recODPXzHIaCBolEk","United States | Virginia |  | Charlottesville |  | ","","","Charlottesville","","Virginia","United States","38.0293059","-78.4766781","North America","","","","","","","['recIswYo1iGHyyJrF']"
"recOnbVZ0NojSvFHJ","Ivory Coast |  |  | Yamoussoukro |  | ","","","Yamoussoukro","","","Ivory Coast","6.8276228","-5.2893433","West Africa","","","","['reck7dOewDiqeF9Lu']","","",""
"recOYNP8tFPCAeoHE","Nigeria |  |  | Kiagbodo |  | ","","","Kiagbodo","","","Nigeria","5.3786091","5.8960738","West Africa","","","","['recmyildMjXhoC72X']","","",""
"recPgRopMpqiWUfyQ","Cuba |  |  | Trinidad |  | ","","","Trinidad","","","Cuba","21.7960343","-79.9808143","Caribbean","","","","['recA10W1xY1H6oZQ7']","","",""
"recPjA5BbGUs7aapJ","Ivory Coast |  |  | Assinie |  | ","","","Assinie","","","Ivory Coast","5.1398055","-3.3237824","West Africa","","","","['rec11TfWLtdgg0lSe']","","",""
"recPpOUCWKa5TQtDi","Netherlands |  |  | Amsterdam |  | ","","","Amsterdam","","","Netherlands","52.3675734","4.9041389","Europe","['rec5tIgqExUtOF8XU']","['recr1V8IDacsz5NCz']","","['recZ4jDAiD6lTddFN']","","","['recEeIkAvaSBazZzn', 'recQnyM4cs2WKNUE0']"
"recPzRCp155FwPVMG","South Africa |  |  | Lydenburg |  | ","","","Lydenburg","","","South Africa","-25.0815817","30.447285","Southern Africa","","","","['recXocQrPdKiutDsX', 'recysvGwnFYn5Xl5V']","","",""
"recPMRF2i9kqxIy4e","United States | Mississippi |  | Oxford |  | ","","","Oxford","","Mississippi","United States","34.3668299","-89.518635","North America","","","","['rec1ZLHfvPUDyVRGP']","","",""
"recP72XKQadKUJtZe","United States | Minnesota |  | Austin |  | ","","","Austin","","Minnesota","United States","43.6666296","-92.9746367","North America","","","","['rec6ffvxgCA01Y10b']","","",""
"recQFv7Bq3uDiB1Z3","England |  |  | Basingstoke |  | ","","","Basingstoke","","","England","51.26654","-1.0923964","United Kingdom","","","","['recIxUWJKlJHNG7oV']","","",""
"recQsTOwGrhHiPMif","South Africa | Eastern Cape |  | Alice |  | ","","","Alice","","Eastern Cape","South Africa","-32.7901325","26.8329509","Southern Africa","['recX6WJVR4LmR7ZYu']","","","","","",""
"recQ92nNZLqICLoRv","Nigeria |  |  | Minna |  | ","","","Minna","","","Nigeria","9.5835546","6.5463156","West Africa","","","","['recyw7Ipqw8kFNbkm', 'recRIfDTZDIHzLGPC']","","",""
"recRGwilYu2FRBJS0","Ethiopia |  |  |  |  | ","","","","","","Ethiopia","9.145","40.489673","East Africa","","","['recKqtRxFO0s8F5V5', 'receREdm8LC9nkWUv', 'recNweotKxv4l8DBZ', 'recRXvaTpVUXBCXFH', 'recSywJlcgpp5GL2E', 'recYJAq8iMesh49pa', 'recIWYPeLN84hqOTW']","['rec0Apw4KjaIhkN98', 'recLNKLRTjPysWD7O', 'recKqtRxFO0s8F5V5', 'recNweotKxv4l8DBZ']","","",""
"recRLZkA0sd1SZeH4","England |  | Cambridgeshire | Cambridge |  | ","","","Cambridge","Cambridgeshire","","England","52.2048325","0.1201662","United Kingdom","['recU1181cFym9Ua3L', 'recSR4hym6I1rMNMm', 'recL3zeftc3MkiydE', 'recqyrIflPNKodBo7']","['recKHN0LeDpEBA8A5']","","['recFIjK2z01fYFNBH']","","",""
"recRdOYUrrv23ETSl","United States | California |  | San Francisco |  | ","","","San Francisco","","California","United States","37.7749295","-122.4194155","North America","","","","['rec03uH9iHd1VaHSg']","","",""
"recRe7jxzJfKeARmP","United States | Texas |  | Austin |  | ","","","Austin","","Texas","United States","30.267153","-97.7430608","North America","['rec1UBjl9jop5IN3S']","","","","","","['recFCHXBrGWWvEYpU']"
"recRttunfFPqjqHMQ","Nigeria |  |  | Bori |  | ","","","Bori","","","Nigeria","4.673499","7.3678624","West Africa","","","","['recmFLKhxO7oJeQEe']","","",""
"recRvpdBSno7RDhjZ","Scotland |  |  | Glasgow |  | ","","","Glasgow","","","Scotland","55.864237","-4.251806","United Kingdom","['rec8Y1ZCfH2NHmCET']","","['rec8LB9SQMtghW09v']","['recJq0FFAHa3cXr2Q', 'rec8LB9SQMtghW09v']","","","['recUKG6AwVerXA0Aj']"
"recRPTnrNPU6ArRJv","United States | New York |  | New York |  | ","","","New York","","New York","United States","40.7127753","-74.0059728","North America","['rec8ZZC75PKfSknwR', 'rec63dqyzlDx5zdLd', 'recBMgdohHJJCZtGL', 'recazkpYqQozHY4MJ', 'rectBuhrP5wIbOWlE', 'rec5onClUC5w5iZWT']","","","['rec70lQm3hdpZgeas', 'recJDDjhNwR3rIKCq', 'rec9SWldef5Tvo8r2', 'recdlQ8EIhCaucZhM', 'recVRedSlSa5Oue6n', 'recwlhJaSqsrI2cbi', 'recHKiNGw50ph1hV6', 'recFk5oQdh4w5pPax', 'recnyjJwzDfbGHFpz', 'recLH5F0gQ0JCYnDg', 'recWpllEqpi8t3zMU', 'recWpVsOK5UtO30CS', 'rec4yzWbJ8VmcOqSm', 'recVQiz53VAv3gxVq', 'recZ7rcax8wN9zmQ9', 'rechmNPf2IR5wVucY', 'rechZcqsqnpHxIXfH', 'recPhSJYpVB9k1NbF', 'rec14c5n228p3m0pw', 'recE91GPXHb6TLMtE']","","","['recpLUfamQkTp1CRI', 'recdzMJFbjeq1ptEt', 'recdiyuHnz0tGPTmX', 'recv6M0cEpbUkOb0O', 'recwDkHLWRdHqzm25', 'recRsVszFKP5MKxng', 'recUAwpvb1t113Ce6', 'recQtPYt3QHkGMKEj', 'recqGoFNuVrUCZAju', 'recX5DMN31T5VWem9', 'recOSyUb8MBC9U0JO', 'recXtCF2txBz7xGpR', 'recLHFQlaTZISH8uF', 'recQWjo5pWPkXUVc6', 'recSf0JkoD43dv2Yl', 'recqoRRFUFyrl2XZe', 'recnXcSbKawgwJgp2', 'recDDHCQt5nbE3YO0', 'recBG3JIgQVOHaFvb', 'recujYDtSLnNYxHJ4', 'rechybnKwmhUk8ofW', 'recWNzKVCIhjUkrZI', 'recMpwPk2CBeMyeZL', 'recknW0leSgaSyoHM']"
"recR6YHhrfthZo5tS","England |  |  | London |  | ","","","London","","","England","51.5073509","-0.1277583","United Kingdom","['recZDrWl4hRL6BX1D', 'recYaOlJM5DpNYcP7', 'recwqxkHnFaWKU3eg', 'recoIsf5dSkWFruA6', 'rec3UcACnZ7nRnLgJ', 'rec6K26ZfQqaggnE0', 'recB3srq0gm0LOXRk', 'rec2O6yixWBMSsWlh', 'recu4NGFpa8Po6Yux', 'rec7mjSdTtTxt3fg4', 'recAKfP1CRTVsCjr3', 'recsTQb7HjBEmPrEq', 'rec795l12vyu06vyU', 'recZ0tKVbIfMORyA9', 'recMv1lB9reyRD0Kd', 'rec4L9LCjhF59E2uq', 'recbTUJtPo7I0xtcd']","['reccB5ZdFyzAGqdSg', 'recXJKpCZXbg7QDDI', 'rec3kSpznFkbYXb6s', 'recoJVnyQnwbDOlO9', 'rec5BR1dbaQ9phwSM', 'recJiUqzYb7rwfRtU', 'rec77MzkjxYAvMwuc', 'recitVL20hvR0jdeo', 'reccgwdkL9fiweGYc', 'recPeFrhzMDApGL18', 'recwFbn6o0orH03Vs', 'recMLyHpViJKWNfLe', 'recoujZsQyWONmj8U', 'recMM3L2PIsxQ3OMU', 'recS4fLAWGsX8nvfy', 'recjYLzqLSUPcYQiw', 'recR0OYlGTFc1HxWj', 'recDU9QE7t0dzQEU5', 'recKJKtQVOWIQOurV', 'reckhbRtx4Wp98rgk', 'rectRWfCPk7CT3az3', 'reclHvpwkyG9VJGHv']","['rec0ODHXzNrCY3Sat', 'recr3uqT3TMTM1sVU', 'recdw0H1VUWu955BU', 'recwMPuy0kTSsRffz', 'rec9R8zN8UZNNiWFz', 'rec94M6UA5npcE3iA']","['rec9PGjgVre4ZpM8f', 'recBireBIv324yBX3', 'recpQJHmsqwayg4Jx', 'recbxL7hEaFZSGUTb', 'recLQqcbwiqHyeC5d', 'recWibXrOg5n2nsd1', 'recOWvYm5GRq858wh', 'recVd26pgDhVdyLtU', 'recfNalBQLGXA7Dxe', 'recFbg90Pw41f0RMb', 'reccBNHEbAWZwb1Yp', 'rectVChYmMcHISgaQ', 'recvIQ55R4gsfeAdc', 'rec4anf0US9cIFCjc', 'recKhlrIt7mCylmGj', 'recmwWJePE6WSvOwS', 'reczAZQsE0YRkFzcV', 'rec58etuTKSLNGc4g', 'recKFG6k4Zn9Bahbc', 'recifvH64sr6lVXtO', 'recqmE72BxofBDwkr', 'recpWxpKEw6HwPuDj', 'rec79mjysY2ulGA95', 'recKUiHG9cZulc5fL', 'rec3bg3CYj67PFsAL', 'recaTZuyUUpQgkSOT', 'recDDpMTekmHO9Yjq', 'recDL9QMO5QnF0Kgt', 'recYrAieyKNR1sBq3', 'rec3gA4aKUEGG6s0D', 'recT8BWagwUokVnmz', 'recDcQ33nTX4a4imj', 'recFB0YeRthxfEHL8', 'recT6qkNqv6i7L95k', 'recy3i3WdQW9IdI6E', 'rec0JLSwig9xf2H2C', 'recieYvemTV7m4WW3', 'recgM3n70CpPgCIST', 'recwLrb2XtYXFVL1c', 'recKWABonWekBD6y3', 'rectGket6SZOxelr1', 'rec4RNCdyxrjnUszD', 'recc8jUg6mcFwGH1F', 'rec4m4I1lHjno8dSi', 'rec6d4nE4MlvCr7gj', 'recT00boeJ7bCMFhM', 'reckbfWBQmdSdH0JS', 'rec9s1lpzmLK0UTGa', 'recAyHHmY3vhrfxEU', 'recmXRfycqmTPzzw3', 'recAllkPd7m0jGEqD', 'recmGNdg9yPOuR74W', 'recExuZfCKK7U7Ch9', 'recF7VPiRXEJTAD1U', 'recQp1vTAcnG48t3s', 'reca6TQeH47qBJTNS', 'recjGXwP9xnpPyDrO', 'rec0ODHXzNrCY3Sat', 'rec3QlSgjqKXI6D8W', 'rec94M6UA5npcE3iA', 'recI6oOzdmGJDBaMm', 'recdw0H1VUWu955BU', 'recwMPuy0kTSsRffz', 'rec9R8zN8UZNNiWFz', 'rec9GWnjDwQIeeeaU', 'recKqzYvgtb3A4PAb', 'rechrFvsM9IgeekmP', 'recFfeXqBPYuaT7Xd', 'rect2zZ97qsvZma9N', 'recP2kDsbOBZ9LpV4', 'recD6EqPH6UuGwzdR', 'recdWfwzEH41q35MI', 'recaCihhgBq9H5lgD', 'reckyy20BZvp8udKy']","","['rechlrrQ3ggxkp9tc', 'recUJx63zIdeRzpEV', 'recd5QaydfA6Ls4RM', 'rec8KvWUpB1YI70iC', 'rec3qJ9cAS12R9eSf']","['recXxVdJnHU3pvIEC', 'recpnKAl8DyDg6Njk', 'recJ8sAV5dNOppLTN', 'recxs7nr1XEK0p7Jk', 'reciRpC86N1AiiFL2', 'recEzJUESbrePx4Kd', 'recG3gMDr1e6fvPJn', 'recfnuDDCIJo1Zpog', 'recqjzd8XHCYYoJZN', 'recaZyYk7lgbLBnhs', 'recnbn7VeDWh0PMTU', 'receVIIrRZwJG3UPh', 'recfg8XeRA88wYMUA', 'reckanGgoZFeNEAni', 'recnxFFLnQDgjJ9sJ', 'recSL9OOvDH6PQ7vV', 'recm2bt0VQoMSg44J', 'recsMxkOubAC56Il5', 'recgJpAf6uDWFQwKd', 'recePapKPouQwFSJw', 'recNd9qPVf6pEuciL', 'recoXGAy4buem1K6T', 'recJScx3oVVYRuUXe', 'recGV16tZ1WlDXrxA', 'recevjrYrffqRJqTm', 'rec1BRerMrMBNKzOd', 'recUZsNsACFyWNFST', 'rec3BNQcXKfIGMA7t', 'rec5zmRHXkzVN4GNj', 'recGtMguDqez734LJ', 'rec32eHlNF1uReLo0', 'recu7rfcyMjFdFFFI', 'recvYl5wfYAZtLNvW', 'recxihtL4HGwCjRkW', 'rec7G38Scuzkn0tMe', 'recshLJXpKWXHRuDq', 'rec5orC0LALDAOhkV', 'recAYqGNqeDWMFctY', 'recaqXAJXU7A7D25U', 'recIUU1EAYZomrKHZ', 'recvCSyQ7K0v2z2rG', 'recyDhpuM2mBUALGY', 'recLGOQ4MjA22I85H', 'rec723anZjT5GZMIT', 'rec8G1Nq4vzaN4CZ0', 'recPlrAZ1WQEUlvjH', 'recTfxn9NvrvEhNEe', 'recvif9HH9BANeqDt', 'rec4PElYeBjToevrO', 'recvVMippnqKSGtYv', 'recfTnlZqCKTtrwCe', 'recPrJMk1ErHDb8Tk', 'recr7JzLQcLOPHU2r', 'reckNjILiZzGvKsUt', 'rec2x2cvmqfgeoPEx', 'recluBBMbabjZHz7u', 'recfSjtIomc2Tgvil', 'recyro4BwzczvEY6m', 'recZMiIlZGbsrJJiK']"
"recSD3C4Tp6Vv66a8","Hungary |  |  | Budapest |  | ","","","Budapest","","","Hungary","47.497912","19.040235","Europe","","","","['recr3BSEX1dvRVuM7']","","",""
"recSFNm7cRV4I7fI7","South Africa |  |  | Grahamstown |  | ","","","Grahamstown","","","South Africa","-33.3106292","26.5255946","Southern Africa","['recG8TKvilamMpoB8']","['recsckjmK0pv5Q51Y']","","","","","['rec1GqP1kRdbda5GZ']"
"recSg2CAzr5Llk4mQ","United States | Minnesota |  | Minneapolis |  | ","","","Minneapolis","","Minnesota","United States","44.977753","-93.2650108","North America","","","","['recj8dewaR7P7AWto']","","",""
"recSrUxlxzI3Dk4z1","Angola |  |  | Luanda |  | ","","","Luanda","","","Angola","-8.8146556","13.2301756","Southern Africa","","","","['recUkxAH7lg0EjGGM']","","",""
"","Japan |  |  | Tokyo |  | ","","","Tokyo","","","Japan","35.6761919","139.6503106","East Asia","","","","['recwhG1L14kN4RcZO']","","",""
"","United States | Texas |  | Clarksville |  | ","","","Clarksville","","Texas","United States","33.6106648","-95.052722","North America","","","","['recnO5FuXRCqsV6Oa']","","",""
"","United States | Indiana |  | Indianapolis |  | ","","","Indianapolis","","Indiana","United States","39.768403","-86.158068","North America","","","","['recBp3JrbNGG9cCw7', 'recsRdIO6O4IgxdI5']","","",""
"","England |  |  |  |  | ","","","","","","England","52.3555177","-1.1743197","United Kingdom","","['rec6xvzNPBM78yHD6']","['recI6oOzdmGJDBaMm', 'recylcr0rMEMeWucL', 'recJsC2vT3V4DEdku', 'reczEex5xvn03w3cV', 'recUwzb59mE7Ub5g0', 'rec22w3NufF1SgnqT', 'recUSxgMyd0cYfPUq', 'recj3KK23qskSeSbv', 'recWjVCsb39gwm99K', 'rec0PutxEfmNEmC3l', 'recqw3g0tM5R49oBE', 'recJU0qNwSnLsGtzB', 'recr55fIJLn9e1GpJ', 'recVDoQ5EKoabJNlT', 'recpAWLanrYst2D4t', 'recHEbtXQqAbu6zVh', 'recQ38e9c4esXYy8b', 'recSkR0lmp3hTlYrd', 'recKHiCrgKt0CDXqP', 'recwf0aYb7Ftq7vJv', 'rec5MjpTg71aubYq5', 'recIdXy31N0AmtJKZ', 'recJprzU0vEqwgMv1', 'recOlg0xWaXPQQSwV', 'rec1p9bOwLlRLatdp', 'recPmKNsTtL2vRdH9', 'recdYlFQ3ijFwO0uH', 'receBdVY8hk3Hkeop', 'rec9zaOVLoe0dEwO1', 'reczvQu8T2yT7Y8xQ', 'rec0IzrDqEm0DLIkJ', 'recJl7UlLVvsquc1G', 'recRzcZL43I51VmL7', 'reciZhwdneWYaUOFe', 'rechrFvsM9IgeekmP', 'recQQHUp9NNkTT7f1', 'recfFG5FSIYbD9JbF', 'recEzmQ9oZ8cnWoAM', 'recGWObOWD2WbzYM7', 'rec4EoigWkQ2geJe9', 'rec0LL4jPULwAvzZw', 'recqEahKC4IpDW6k2', 'recYsGr3UCq7LH6Wu', 'recrmSyg0CTFMMVsI', 'rec9AYKoXE4cvC4ud', 'recXexovxp52rHwof', 'recxaLYnXiv99dDgR', 'recP2kDsbOBZ9LpV4', 'recDinQci02HoJp1O', 'rec9GWnjDwQIeeeaU', 'recD6EqPH6UuGwzdR', 'rec4V1w9oT2NguKSQ', 'recW0pcTosEyTilM0', 'recri8nQBWiBukd4s', 'recnDRo279dqqGP20', 'recwMQtGCJJjvPZEA', 'recHqhKMTrYFElsxy', 'rec6lnGtv6OSVtoEN', 'recTlEszPfNGWXqxv', 'recoC0zs4dJb2YzGU', 'rec04pBf8JDPkkvLB', 'rec71ygtbRPV6dCvn', 'rec95LnyjDyeX4POh', 'recno5KS7BHreRFzg', 'rec3QlSgjqKXI6D8W', 'recmScrK6E3w18lqG', 'recyuOZePG0JmLzne', 'recOeohD16riZEfsp', 'recUVSg9jgTeMuTDs', 'recn7NcWy3NkCJPxO', 'recF1nwUh3Z64NQfC', 'recUZFCzQHtupHXFt', 'recgqsroPpdTi3OLU', 'reccBuGt0MueqV8X7', 'recreJ45DNlIcHnOm', 'recJkFG53sUrlFdbI', 'recOvTTeJ2PsBS9Js', 'recEo0CKI8eV72hLC', 'rechwFbAhbDovnWeJ', 'recaxzAZy8VXpXPaF', 'recXTt8xFlteSo548', 'recwsfNVGTQWlq3j9', 'recFIjK2z01fYFNBH', 'recHrXIk1RP72ILAr', 'recGYs5kvd32xyNwN', 'recr3BSEX1dvRVuM7']","['recylcr0rMEMeWucL', 'recUwzb59mE7Ub5g0', 'recqw3g0tM5R49oBE', 'recHEbtXQqAbu6zVh', 'recQ38e9c4esXYy8b', 'recPmKNsTtL2vRdH9', 'recreJ45DNlIcHnOm', 'reczvQu8T2yT7Y8xQ', 'recRzcZL43I51VmL7', 'recwsfNVGTQWlq3j9', 'rec71YFiWR3acvMl8', 'rec9fhaSuS1VCt72x', 'recdYKKq9e2BZVg49', 'receUlQSMmclJXCZw', 'recJprzU0vEqwgMv1', 'rec5hACz7Wb1vbtDe', 'recj0LhHBHsz8XbY2', 'recYp0YWM8dg6iSjp', 'reca6bY5bmrphZTTM', 'recuGjjGW9YoLm1AU', 'rec95DIkQnaHYdENV', 'recR7klPPIt81oMkF', 'recK4M9Pb5ubEl8Di', 'reclIPWVZUTdek7RW', 'recqn3mScCJQbvl9v', 'recoSVCBq0kyfUfNB', 'recETfunveruYSX0X', 'recKMFfwoYL7zLYIL', 'rectliDq1GsWRr9SP', 'recPSeCmKETD8ZTgJ', 'reci1vRhY6JO0M8IX', 'rec11MSqMXUEsv6zG', 'recrHkyG2ff9n9huX', 'recTMuuJGX9yvbtcu', 'recokscJ3ck6jMctg', 'recukPn6pAJqYTsh7', 'recDq4BuqT6wWaMbY', 'recIo0qsRiYyqWw1D', 'recgZIqJvkVgSKP5U', 'recFV5ow8F77ZNEm9', 'recY2kURt6HB8MHWX', 'recObKNDzQ5WvWJVU', 'recwYTHr0Z62QRTef', 'recNQfGvHeMwbVQ6x', 'rec2n0OCtJWRi3wAQ', 'recV4dgHIJxUq8Oey', 'recKnA86mJ3LouD9q', 'rec3rJTUdpM6kH2V4', 'recW3khzz0KBhuf3s', 'recppglJEhvnCaMLi', 'recPvbfEXCo1KtUVG', 'recmNkoTxGH9UBD9s', 'recASU7gxV4C7uzbX', 'recbwUbxQcq6h2sJu', 'recr9DZwtKehRDQT5', 'recblu5N8DS2bTI3B', 'recD5MrihPdZYkVTl', 'recwHmKoSUHmbfPK3', 'recAptXbXPhscTSex', 'rec2UmBa9uQnInRyf', 'recITq8503b1l1ELS', 'recfZkPxs0fvmzWBo', 'recfINLxUmlBpYmvB', 'recCyaSSAqO1DD08T', 'rec1h6D1OayVuqtMa', 'recY5csRpdprIEYiA', 'recyMJkgGQhomNEFI', 'recGqG9bp2xL3d97s', 'recVJzk5KcR1RH8Zq', 'recsPM43zqZrldSae', 'recL0mvPZ0MukEznU', 'rec6lnGtv6OSVtoEN', 'recoC0zs4dJb2YzGU', 'recIkY6n8z7nxB0Hn', 'recRktKuBTmya0qST', 'recc6oLAOEbSKzVMf', 'recoHlaU8OtzCEFml', 'rec2JeKkepG1wQGee', 'recQtHMJkbPVRqrb8', 'recrQe3yB6SIEq3xc', 'recJ5PfjF7s6s3ild', 'recr5HQNYfFNpOB0u', 'recWrzE6HoJt5emrc', 'recmBtLxEACEqNOw5', 'reciNgQ35EfUBsyGT', 'recpUA0b1wYg1IvfB', 'rec1EW9xIXZhNDHWK', 'recWiYZuSkVF4AOyI', 'recGmTDoSCPJxcnt4', 'recjzwT0QN0Xne926', 'reclFo8n9G5nYKZSF', 'recAtU1eJGr0GeM8m', 'recQtd1Zj0qBV6DGa', 'recEoCGGTr00TJi2G', 'recbdyDGxb1hyPsrw', 'rec8NVBVJaF1WJ5mX', 'recsPa3p26yZl7ebP', 'reccZCjzZiTZqW3vH', 'rec7RXnlJkDK4Dk82', 'recKWaUwEqP1pFoVl', 'recE9WiJKuKVKbS3X', 'recFohK3Q4NbpSbQk', 'recIAgB3iO6gBVtWL', 'recclYlA9u2oXjqNT', 'rectHGRTkCxdCltqP', 'recOJQFXLvGaCxtsJ', 'rec0vJrspRlKIDkZU', 'recdqc2lote3Ay4Ep', 'recsSMX4noh4kdtGA', 'recZhKsnCegk7D7In', 'recHfaBf1m2gBSTGI', 'recnrQOuQ9DtCDn9q', 'reclnjxzj85nMhgsy', 'recIO8hG88taSEvKc', 'recqQL66cxQLmo2UK', 'recrxrwpIKwPh6qu3', 'rec41bkq0M2qDFdjj', 'recHs3Ab34vf57tHF', 'recv7hjhprlLiAMsu', 'recCsIv15eEnZEnWp', 'reczhTKJdCVmOwSbu', 'recGou420QjapLGTt', 'recyIzr7eerwMgbqq', 'recYW5OGqpzKHhaj9', 'recLdUnZ7rkhRLeu0', 'recZ2ijFk8h5gKz5m', 'recOcTeilEpGVGgS8', 'recQ1Y6u1001NFrkn', 'recwVEzsPhj88Zq2a', 'recvxxKDwSAF031UO', 'recCw90CXgtZ7aOVb', 'rec9KJw8SbOTYTcRk', 'recgVDa9CafDCbfAb', 'rec0WXDarREEC6w6e', 'recacOk0PPa49lZnR', 'rec4VbvDRUIYSBE9w', 'recuriyJheL3CGVGi', 'recB7Zx7n1EP5xHjA', 'recXQTjX5dY1dSa0e', 'recwK9LVNCTKsXL2S', 'recmiExssiCXEW3gE', 'recr9drplvUMlMBJF', 'rechCjMz20CDGSIqV', 'recv8A1ptSgtCLUcY', 'recgHOpzR9lchpt0M', 'recHb5AhiEYDLb1D7', 'recDniiD9wqPDauim', 'rec4zWA5zdxtnMAm1', 'recCXnlkyO0nTkCZu', 'recmdM4K4kN6s8a11', 'recyPK6ix8rOOBUdu', 'recUS8X2gcuVBkRFE', 'recCeef95ENzDeSfi', 'recMbleitp0z38alH', 'recsKmE263knkDUvL', 'recWCarcHeHheN73f', 'recVnZp1BtO30tCuc', 'rec71ygtbRPV6dCvn', 'recn7NcWy3NkCJPxO', 'rec0PutxEfmNEmC3l']","","","['recG1rA73QjWKeuZF', 'recw9Gm7gmSwMdnCY', 'recVaqaHVYw32pcoV', 'recII2YATHrLZwC1z', 'recsZke0mJwbblEGb']"
"","Senegal |  |  | Joal |  | ","","","Joal","","","Senegal","14.1811693","-16.8502879","West Africa","","","","['recBdxaNWIHd4zhkg']","","",""
"","Scotland |  |  |  |  | ","","","","","","Scotland","56.4906712","-4.2026458","United Kingdom","['recsKmRMtKGlmvhHf']","","['recjcqo5Xbuadsw29', 'recEadpRGDKvzNbBc', 'recaQR4MFonvM8PUB', 'recwQ5dRw8u3Oqt5w', 'recJq0FFAHa3cXr2Q', 'recyrGY91BeIBiwuz']","['rec9bCjQ0kizpfyaj', 'recz4hErvolM0GBR0', 'recSHKo8qrPKrUys9', 'recVV6iqqIMSC4NNy', 'recSYHHo06oyCU0b7', 'rec47tRZegJ5rkqfK', 'recbcuRAqLwyBqksD', 'recClnBuH9eLWc5Of', 'recOG6oxLPv0bOx18', 'rec7TviELiDVAbSWY', 'reciXuDWThTHUYiPd', 'recIsXpTiKI3fVXJJ', 'recdV6DhBGBDVkSCM', 'rec6DpFbyMuBDpNTm']","","","['recRFGkH2X1mAGFtq']"
"","Austria |  |  | Vienna |  | ","","","Vienna","","","Austria","48.2081743","16.3738189","Europe","","","","['recSujKQSXUaAtJl2', 'recPNEuBesYDWBdAK']","","",""
"","Guinea |  |  |  |  | ","","","","","","Guinea","9.945587","-9.696645","West Africa","","","['receQK7HpqwtTnwOt']","['rec4xj4JkQl3gjty7', 'recVUoarYZKCokNa3', 'recfude6DYnpmKWXO', 'recxGhcFhCTzlAZok', 'recYlGgxRB4FtP2cY']","","",""
"","Nigeria |  |  | Ogidi |  | ","","","Ogidi","","","Nigeria","6.1452777","6.9048148","West Africa","","","","['recOo2kpeQuQEciaC']","","",""
"","South Africa |  |  | Bontebokskloof |  | ","","","Bontebokskloof","","","South Africa","-29.788981","30.8326663","Southern Africa","","","","['recuORZit1m0m3GHg']","","",""
"","Gambia |  |  | Banjul |  | ","","","Banjul","","","Gambia","13.4548761","-16.5790323","West Africa","","","","['reccvo8NMj2CiOdaP']","","",""
"","Scotland |  |  | Dumfries |  | ","","","Dumfries","","","Scotland","55.070859","-3.60512","United Kingdom","","","","['recEadpRGDKvzNbBc']","","",""
"","Congo |  |  | Pointe-Noire |  | ","","","Pointe-Noire","","","Congo","-4.769162","11.866362","Central Africa","['recekyZsYriBQXE5D']","","","['recWzBkkqbZTCLuTq']","","",""
"","Poland |  |  | Poznan |  | ","","","Poznan","","","Poland","52.406374","16.9251681","Europe","","","","['reclPOWHBgD6A72U4']","","",""
"","Ireland |  |  |  |  | ","","","","","","Ireland","53.1423672","-7.6920536","Europe","","","","['reci4nsYsAMmr9fCm', 'recGGU1K6yK1d5j5W', 'reciCyrl3ya67YPWy', 'recgNkZttSkivLwH5', 'recJYKC3N7IWiGJwD', 'rec0tEEglhM1xoRag', 'rechGCaJubaFa6ESR', 'recCwSMrfjb9Mxj9w', 'recGOXsh2ift0eDG3', 'recKoZ3o4nSXarBwO', 'recKa5FQptGMbSboz', 'recnFUr13yre7SWBV', 'recsqoTnO2uhoPsOK', 'recWUUuuqwhlUdlhO', 'reccXloup1sALKR0i', 'recD9w9wjdB9wbhOx', 'recGcXoI1uLAcWb4v', 'recqzxeRfuYWaFS5z', 'recJOTKoC663QDDcm', 'recCj8Vg4VJaVCGEm']","","",""
"","South Africa |  |  | Oudtshoorn |  | ","","","Oudtshoorn","","","South Africa","-33.6007225","22.2026347","Southern Africa","","","","['recN80tQNHxdhyGvr', 'recrVAwkx8ZEfLAwQ']","","",""
"","Madagascar |  |  | Arivonimamo |  | ","","","Arivonimamo","","","Madagascar","-19.0098182","47.1800893","East Africa","","","","['recqO0dQd4f6mHqqS']","","",""
"","Switzerland |  |  | Zurich |  | ","","","Zurich","","","Switzerland","47.3768866","8.541694","Europe","","","","['rect3FOZ6sTPJkxda']","","","['recGveNocQTvVT3EK']"
"","United States | Minnesota |  | St. Paul |  | ","","","St. Paul","","Minnesota","United States","44.9537029","-93.0899578","North America","","","","['recQsgTUTkKGIUb8K']","","",""
"","Madagascar |  |  |  |  | ","","","","","","Madagascar","-18.766947","46.869107","East Africa","","['recIXd84H4cBSQLxs', 'reccSL2bfWnw8wavY']","['recqO0dQd4f6mHqqS', 'recS6VRZbkRMZ4Apa', 'rec5FVXJsCsQo4ZI6', 'recabr1rvpojip0u0', 'recg6emGnaZJTu1kR']","['recKgXwkpmPOJKmV1', 'reci159DtdIgBFdI4', 'rec2Cl6ZPgSo5YOFE', 'recg6emGnaZJTu1kR']","","",""
"","United States | Mississippi |  | Laurel |  | ","","","Laurel","","Mississippi","United States","31.6940509","-89.1306124","North America","","","","['recvbOd1Hbb7MZGG9']","","",""
"","United States | Connecticut |  | New Haven |  | ","","","New Haven","","Connecticut","United States","41.308274","-72.9278835","North America","['reczoprATwGTQDiGC']","","","","","","['rec32VB95Ccos35Qc']"
"","Scotland |  |  | Blaiklaw |  | ","","","Blaiklaw","","","Scotland","55.782081","-3.7184416","United Kingdom","","","","['recjcqo5Xbuadsw29']","","",""
"","Republic of the Congo |  |  |  |  | ","","","","","","Republic of the Congo","-0.228021","15.827659","Central Africa","['recvW1nP3NBRjC4Go', 'recQEXiG9AZpncT8V']","","['recPxmrXdENsL9H4t', 'reclp44nPFpENyXsk', 'rece7yBr1DgEhfXdR', 'reczeUzOnVayz6tx3', 'recbrdJ4JhkPlcFMy']","['recBO6QP9eUldn1Og', 'rec8NlH6OQBh3RT5n']","","",""
"","South Africa | Eastern Cape |  | Tarkastad |  | ","","","Tarkastad","","Eastern Cape","South Africa","-32.0078739","26.2718021","Southern Africa","","","","['recSoOMapUFjKGsMP']","","",""
"","Madagascar |  |  | Maroantsetra |  | ","","","Maroantsetra","","","Madagascar","-15.4353987","49.7392575","East Africa","","","","['rec5FVXJsCsQo4ZI6']","","",""
"","Lesotho |  |  | Khojane |  | ","","","Khojane","","","Lesotho","-28.95504","28.16014","Southern Africa","","","","['recBhVuvr3JCuffzi']","","",""
"","Scotland |  |  | Alford |  | ","","","Alford","","","Scotland","57.233323","-2.704753","United Kingdom","","","","['recwQ5dRw8u3Oqt5w']","","",""
"","Nigeria |  |  |  |  | ","","","","","","Nigeria","9.081999","8.675277","West Africa","","['recITHDo2YrVIs39Z', 'recBamP4OprLw7774', 'recjt1SgHRxSVlIhi', 'recd9jC1M9sSqtOHk']","['recZoWYIG4TUSm4dg', 'recBvLFtelOVzL0YK', 'recmyildMjXhoC72X', 'recUiPx4caoRhWvaM', 'recLTfg4s1V8DoHZC', 'recIEuCEh4zUIwGmh', 'rec3Bsu8YAwh3DvTn', 'recP34XkRR1kXmqdp', 'recOo2kpeQuQEciaC', 'recl6SJoWqlpPAy4Y', 'recmFLKhxO7oJeQEe', 'recZ9vZliUqTyGjRQ', 'recF8QPJ15W1rJUCC', 'recHoRnE9H142WJdN', 'recrkX4daZNLsq0cZ', 'recvMf97sMKrqumsZ', 'recNRVArTRZ9V0LgF', 'recRIfDTZDIHzLGPC', 'recc52JQLKjaL4ELi', 'recdWfwzEH41q35MI', 'recf9wKIFfPlHVbhT', 'rechuD0uVwHhbadj1', 'reckQnHMAUdeO2R0s', 'recNeRfncVcTNpqHS', 'recN0yT2NkWok0afS', 'recO5GgTGalg2xKdI', 'recPACnHDcH0odLU0', 'recPPSL50x2gKVOmN', 'recS06iIyTmJ0s7q4', 'recTdT7QCouy1UEC7', 'recVm2D79qE3AxzJz', 'recXwNHH0p2xysbyN', 'rec0HEPeVkWGZrxHa', 'rec0uOi0RntK9dOfH', 'rec0BxbMKWb2RUicA', 'recaMjLvQBgmPYk3h', 'recleyeUvKFjQ94aL', 'recnj6mcHUT6Q9DmS', 'recoLTma7dDD3aWmR', 'recvS6sGEKEA8KeRT', 'recAYAxEtHl10unbJ', 'recJFOjL0BpKSisUN', 'recJcad8Pgg3OdvGn', 'recJkup6rpAFUMawx', 'recK4ptXkB6KxrGhF', 'recKbBGfqw3bQW8oV', 'recG4icTQn39z0ePT', 'recwoIn6pJEWLANP5', 'recSeZXUpMFrOVp03', 'reckyQyJbqYm1OP83', 'recuT7EIBLrLCqNJk', 'recvfPha2eYXwXUej', 'recHZeyGtRctzUFg5']","['recf3OkMSL65STVAD', 'recOYYKBTvtNEciSh', 'recNOrpslAfgHGgBf', 'recJiVdbXDYnWc3nG', 'recyxH0kdHA7CBBkY', 'reccbjPWO1XjsGyQ9', 'recBHwpfOoepVZImb', 'recMCapepvjb7Xyp0', 'rec0FFE4tCfSQeJ8p', 'recVuwqYsWunrBmCN', 'recJZHBLwufnQUY6L', 'recpL6RXni6duKS0N', 'recSVk97N1epE70gE', 'recQDAdMAwMfZMIYq', 'recW7nkA0qfWrKkaC', 'rechc9BFreKE5N8OU', 'recCqUqF8OjmU4MnN', 'recBjda3mglvqmNeR', 'recoUiz0jlkVDXOb1', 'recDQMBa1OHuxLg3X', 'recSOcqB6U5eQmLVn', 'recMe6Fg11iEDItZk', 'recOP4UrqtgJhKzl6', 'rec6hPmKvMr9qczMx', 'recnmPbR7rYfZi0KG', 'rectkDXvDOmpzQErG', 'reciSJ7HrBofHq0v9', 'recGRfpd23RJuIWqf', 'rec5ZmVSQhIuXfqdJ', 'receDmknT9rKstFIW', 'recZ9vZliUqTyGjRQ', 'recF8QPJ15W1rJUCC', 'rec2BLOCmCFZLVgMD', 'recQMYokVHIAH92ni', 'recslCRdXKhY5fSRD', 'rec0iDAhnkWbxqJyZ', 'recwbrq283hTFWQ4v', 'recEV8ZTMkV7nfMCb', 'recdghPB6JUeF0Jri', 'receKIj6NRE2ibtqf', 'rec238l2rZXRpNNNN', 'recBPKEOGOFYLnlPv', 'recd8zDDC2Ho08dC3', 'rec1vFB4yJat6xHAr', 'recn9G5SSXDPHpYlA', 'recc1Kl6K7OdHil7R', 'recUaj6tCWmwLXjGK', 'recJCLO6Lqzhsrs4g', 'recq74RZx9SvOKLO4', 'rec2dKxSQV9Sa1IlR', 'recvyyoYLXdyTWcHs', 'recp1zwnejRtD60IN', 'recCqwev3JK4GFYqD', 'rec9LWtLVmcTR7AUZ', 'recj3INa8gh6Bp9Q5', 'recBFWO7E2hwbt90n', 'recHXuKbPgGkgzNOD', 'rechO0yirsQ7nEalG', 'recGoVkzPzbtCYAFI', 'recNfgqWOMatxEIYm', 'rechaCXLAhM1KZnyU', 'recXS7fTcQVy2mScM', 'recHZeyGtRctzUFg5', 'recVm2D79qE3AxzJz', 'recJcad8Pgg3OdvGn']","","","['recmn7cxsbZVA3UE5']"
"","Sweden |  |  |  |  | ","","","","","","Sweden","60.128161","18.643501","Europe","","","","['recJlUcCh9INUjYqE']","","",""
"","Switzerland |  |  |  |  | ","","","","","","Switzerland","46.818188","8.227512","Europe","","","","['rec90wftpD22INlG9']","","",""
"","Somaliland |  |  | Buuhoodle |  | ","","","Buuhoodle","","","Somaliland","8.2363238","46.3384816","East Africa","","","","['recuXAbQCRxJfNW1g']","","",""
"","Netherlands |  |  | Leiden |  | ","","","Leiden","","","Netherlands","52.1601144","4.4970097","Europe","['recShp0cHMGUHfNNo']","","","","","",""
"","United States | Massachusetts |  | Amherst |  | ","","","Amherst","","Massachusetts","United States","42.3732216","-72.5198537","North America","","","","['recOlrWOlkrr2REsN']","","","['recGJI95pZagLMsJR']"
"","Northern Ireland |  |  | Belfast |  | ","","","Belfast","","","Northern Ireland","54.597285","-5.93012","United Kingdom","","","['recW1oWEJVccvBrux']","['receq6FVwrxum4Nlb', 'recW1oWEJVccvBrux']","","",""
"","United States | New Jersey |  | Princeton |  | ","","","Princeton","","New Jersey","United States","40.3572976","-74.6672226","North America","['receUXSEfNPKkQVsK']","","","","","",""
"","South Africa |  |  | Dundee |  | ","","","Dundee","","","South Africa","-28.1649792","30.2343141","Southern Africa","","","","['receqlqqlevq2dKGL']","","",""
"","United States | Oklahoma |  |  |  | ","","","","","Oklahoma","United States","35.4675602","-97.5164276","North America","","","","['recYk3n276srnjBB9', 'recHEVMGgJyGJ7VOD']","","",""
"","Malawi |  |  | Kadango Village |  | ","","","Kadango Village","","","Malawi","-14.1183479","35.2066038","East Africa","","","","['recURRbIgveOeoPqf']","","",""
"","England |  |  | Bristol |  | ","","","Bristol","","","England","51.454513","-2.58791","United Kingdom","['recmHZuIc40bjJ0M6']","","","['recP95QQzCWhLrhwJ', 'recFiPzVZdjGK9oSU', 'recj3KK23qskSeSbv', 'recfFG5FSIYbD9JbF', 'recqEahKC4IpDW6k2']","","",""
"","United States | Virginia |  |  |  | ","","","","","Virginia","United States","37.4315734","-78.6568942","North America","","","","['reco1bklMesYkWBwc', 'recSSdyT4JcRJBtUk']","","",""
"","Greece |  |  |  |  | ","","","","","","Greece","39.074208","21.824312","Europe","","","","['rec8NwZnDeQlEUpgv', 'recNrhNxlkZqkuSa0', 'recjGnzQZqpNMgghB']","","",""
"","England |  |  | Leeds |  | ","","","Leeds","","","England","53.8007554","-1.5490774","United Kingdom","['rec571VzGkER6dg0n']","['recIf7HNDgfnOsQdJ']","","['recRYWDa3vQ9K9hxW', 'recwf0aYb7Ftq7vJv']","","",""
"","England |  | Oxfordshire | Oxford |  | ","","","Oxford","Oxfordshire","","England","51.7520209","-1.2577263","United Kingdom","['recTOPJPNxnOoaEO1', 'rec4dAhXgzgV2Nb1Z', 'recpniATJZ2xxXDxk', 'recSahzOwhsCaEt1h', 'recagQK4nAq8dYqq8', 'rec5j91R5HXY0ErGF', 'recuG6zkSzfTUg5Gd', 'recmfRi39g7JmO1Dc', 'rec4I6sqUzwB5kXuH', 'rec52uN7dV5njZddm', 'recLGKvQgYmTh9d9o']","['rechJkSvhtpIInvII']","","['recdIbnqFDCrao4aB', 'recuA9iDAITkPZANf']","","","['reckBi9snfx9vvo8R', 'recCGS5qIEq3w252l', 'recyHCLEwYTDvlAwV', 'recy5B5gRIbhpABje', 'recjoEnpofYD17GIM', 'receSvcw3zgvIUMHO']"
"","United States |  |  |  |  | ","","","","","","United States","37.09024","-95.712891","North America","","['recuwbolt1QZsK3iA']","['recVgXf2BbMS8KR4Q', 'recVQiz53VAv3gxVq', 'recz8en6UIDlr13D8', 'recpV17vXygOLZ3VE', 'recQtA33HftfccxCZ', 'recc3rP6lJw9lyFQC', 'recR7lFaDhYDXgTCs', 'recaLhmI1TnOXsrjy', 'recLgG1Fsf1ud9Lqr', 'recB6btTE5MJbAFB4', 'recG0M5ay3xJI9XLK', 'recBOBIDfXzPE6C3O', 'recFIjK2z01fYFNBH', 'recCRy0frngfnqWUE', 'recjn1e1ShaE0ikQD', 'recT6zDDF0kSnuvFB', 'recorD2RBDThrvT21', 'recjTn7kYwxXI6PSV', 'recjM84TqPkS9iUjQ', 'recIXDg4nDrSTzVKb', 'recIVubH3R4gTP3GO', 'rec7Gah5IX2GYP2Ey', 'recOW3sN2ZwudSS1I', 'rectHHbbYV2LSQqv2', 'recaxzAZy8VXpXPaF', 'recp4rPGpIl10aeRN']","['rectmJxGXAJNhfSVk', 'recVjzqfZZDzfqAkj', 'rec8tC2umHNarPip6', 'recREWFAE83gjHTET', 'rectMUgNc38PFdxqA', 'recoLyJ38I2RNihdL', 'recHuObIT4xi6vhP0', 'reckjjRYUvfPHxWdB']","","","['recA8oiRYTJw2ts5s', 'recS9X0I8vU6MqlFi']"
"","United States | District of Columbia |  | Washington |  | ","","","Washington","","District of Columbia","United States","38.9071923","-77.0368707","North America","['reckhhQev5s7FQh1G', 'rec7R8Emp5CJIv5nN', 'recvpC63VVoTeBLUo', 'recfClMRd0hq0mwVJ', 'recNzw0ev29WxrRFy']","","","['rec9TpVq1prOb2UW0', 'recudGgzO4XgX1dXC', 'recjTn7kYwxXI6PSV', 'recjM84TqPkS9iUjQ']","","","['rectCtZY2crWRvDz8']"
"","United States | New York |  | Ithaca |  | ","","","Ithaca","","New York","United States","42.4439614","-76.5018807","North America","['recAYV8Mv6DlMEPt2']","","","","","",""
"","United States | Louisiana |  | New Orleans |  | ","","","New Orleans","","Louisiana","United States","29.9510658","-90.0715323","North America","","","","['recO749Jk0dqVnBh9']","","",""
"","Martinique |  |  | Basse-Pointe |  | ","","","Basse-Pointe","","","Martinique","14.8672508","-61.1155622","Caribbean","","","","['rec2z09hX5pCtvqpR']","","",""
"","South Africa | Kwa-Zulu-Natal |  | Vryheid |  | ","","","Vryheid","","Kwa-Zulu-Natal","South Africa","-27.7654196","30.792458","Southern Africa","","","","['reczK3i9PQzDoN6ks']","","",""
"","United States | Hawaii |  | Honolulu |  | ","","","Honolulu","","Hawaii","United States","21.3069444","-157.8583333","North America","","","","['rechofUxKs7wOFTMZ']","","",""
"","Germany |  |  | Berlin |  | ","","","Berlin","","","Germany","52.5200066","13.404954","Europe","['recX281pJiMTtCsmR']","","","['recYFxhhA70ED06J3', 'reculO1cgfzbjxA5Q']","","",""
"","South Africa |  |  | Pretoria |  | ","","","Pretoria","","","South Africa","-25.7478676","28.2292712","Southern Africa","['rec82mxfVvJ2Bp1SX', 'recGqSSihJtYd3SZ5', 'recjAikPFs9Izr44v', 'recCE5XGLcPsKepsF']","","","['recf3EOuAm9HB9jGu', 'recKXVvKsCnHCtTKe', 'recnNkf2IUSFuHWfT', 'rec66xaJWSHHckvag', 'recOpSWhTmyQRhLqV', 'recS1g0kTJjvHCHwy', 'recOsD4ksu71kt7cF', 'recVyDA7Uu8mmSL2w']","","","['recuOJQXEF2EREGNJ', 'recVkfiMH1tyOotZ2', 'recvAB9KNsG4WYBUk', 'recEpdfXUVbaN061H', 'recLe53p1PjplIKEO', 'recpbBpABpOGiswOi']"
"","Nigeria |  |  | Umunumo |  | ","","","Umunumo","","","Nigeria","5.6578278","7.2922646","West Africa","","","","['recZoWYIG4TUSm4dg']","","",""
"","South Africa |  |  | Cradock |  | ","","","Cradock","","","South Africa","-32.180971","25.6509915","Southern Africa","","","","['recjKvU9JG4GftnEK']","","",""
"","United States | Indiana |  | Bloomington |  | ","","","Bloomington","","Indiana","United States","39.165325","-86.5263857","North America","['rec0EZZr4GahJUHGn']","","","","","","['recCVZE5Wg6hquj7a']"
"","United States | New York |  | West Hills |  | ","","","West Hills","","New York","United States","40.8273364","-73.4381838","North America","","","","['recaYiIrSZl94MCml']","","",""
"","Russia |  |  |  |  | ","","","","","","Russia","61.52401","105.318756","Europe","","","['recWQg9O8a81sjo7A']","['rec7kwPcmi40NA1KE', 'recTIur7SWqw9Udb1']","","",""
"","Nigeria |  |  | Oyo |  | ","","","Oyo","","","Nigeria","7.8429579","3.9368439","West Africa","","","","['rec3Bsu8YAwh3DvTn']","","",""
"","India |  |  |  |  | ","","","","","","India","20.593684","78.96288","South Asia","","","['reczzEEtGIZ7fG1l5', 'recVZcy1mEyw735Kj', 'rec4EoigWkQ2geJe9', 'recaxzAZy8VXpXPaF']","['rect39E2jvhWiCjN1', 'recmQujk31vxdeSUc', 'recF4Tx8UFZbNU6H8', 'rec4YhOgDnDM4zJ7A', 'recLjxeXkofa18b8f', 'rec6MwPg9Jn3PS02r', 'recJSTxn1GF3FDPmT', 'recAKdRMMPDad3nmZ', 'recxHupbsX2JGlIaj', 'recIzb0Uxzt62PDEV', 'rec4YHG7BvxQkqUqW', 'rec9BhgucY3qVKvkT', 'rectTSPsBwdnjlIxO', 'recrLwWUnA1k9Ixqv']","","",""
"","Belgian Congo |  |  | Katakokombe |  | ","","","Katakokombe","","","Belgian Congo","-3.3978664","24.4203028","Central Africa","","","","['rece7yBr1DgEhfXdR']","","",""
"","Angola |  |  |  |  | ","","","","","","Angola","-11.202692","17.873887","Southern Africa","","","['recUkxAH7lg0EjGGM', 'recWuPkXWOqYlMcey', 'recQkP8AG7pRrpamd', 'recTxajge7uSyOviA', 'recmGxn7JXy5CXOB9', 'recsyNYeLxtmaufE6', 'recsUo966PuwFuuLY', 'recwhKqCA2mKzXrS7', 'recz5uiI5wdl9twIG', 'recA9Ey8KR1yzEKZc', 'recGHmQBPxmIK1wEI', 'recKPFvDWXpkb2kHq', 'rec0APt6GgQqIavKF']","['recUogLl4zqNgR22o', 'recsUo966PuwFuuLY', 'recsyNYeLxtmaufE6', 'recTxajge7uSyOviA']","","",""
"","India |  |  | Delhi |  | ","","","Delhi","","","India","28.7040592","77.1024902","South Asia","","['recxToWc8cDShdRAW']","","","","",""
"","Italy |  |  | Florence |  | ","","","Florence","","","Italy","43.7695604","11.2558136","Europe","","","","['recistNTnACet9830', 'recA5pcTPppkOR0dg']","","",""
"","Gold Coast |  |  | Kumasi |  | ","","","Kumasi","","","Gold Coast","6.6875605","-1.6231629","West Africa","","","","['reclkjf5RAoQfCuhd']","","",""
"","United States | Illinois |  | Evanston |  | ","","","Evanston","","Illinois","United States","42.0450722","-87.6876969","North America","['recft4oHotrLS0QsH']","","","['recSEx3pIh8VIOnWA']","","","['recxlgTKKosoBHEe2']"
"","North Macedonia |  |  | Skopje |  | ","","","Skopje","","","North Macedonia","41.9981294","21.4254355","Europe","","","","['rechXPqcaNGlD7iHB']","","",""
"","South Africa |  |  | Alexandra |  | ","","","Alexandra","","","South Africa","-26.1033012","28.0976369","Southern Africa","","","","['reclRsCpN7UKUY3Tk']","","",""
"","Somaliland |  |  |  |  | ","","","","","","Somaliland","9.4117434","46.8252838","East Africa","","","['recuXAbQCRxJfNW1g', 'rec0b1g4x7BblxXGu']","['recHJuwR7fOu9dqiJ']","","",""
"","United States | New Jersey |  | Newark |  | ","","","Newark","","New Jersey","United States","40.735657","-74.1723667","North America","","","","['rec9yk6mPMSho9aYo', 'recDMKRpXc0QAwUZ3', 'rec6vdCrqIU4i2XZc']","","",""
"","United States | California |  |  |  | ","","","","","California","United States","36.778261","-119.4179324","North America","","","","['recRbiux7XIQ815vz', 'recJtdURNbvK0fp1O']","","",""
"","United States | Pennsylvania |  | Lewisburg |  | ","","","Lewisburg","","Pennsylvania","United States","40.9645293","-76.8844101","North America","","","","","","","['recQBWBFiYwnofyGr']"
"","Sudan |  |  |  |  | ","","","","","","Sudan","12.862807","30.217636","East Africa","","","['rectHHbbYV2LSQqv2', 'rec3yu1qt1fjMIv75', 'rec8nBQ5hFOshwbHt']","['reczCk5rsuO0qABve', 'recXrGvnPh5OP7k5h']","","",""
"","England |  |  | York |  | ","","","York","","","England","53.9599651","-1.0872979","United Kingdom","['recirKiaFW5gNAzFh']","","","['recA21MaYTugsYbrg']","","",""
"","Iran |  |  |  |  | ","","","","","","Iran","32.427908","53.688046","Middle East","","","","['rec1C7fEmnkubynZs']","","",""
"","Nigeria | Osun |  | Edunabon |  | ","","","Edunabon","","Osun","Nigeria","7.5293","4.4542","West Africa","","","","","","",""
"","United States | Connecticut |  | Stamford |  | ","","","Stamford","","Connecticut","United States","41.0534302","-73.5387341","North America","","","","['recAV5Sc5OCfXa8U7']","","",""
"","Vietnam |  |  | Saigon |  | ","","","Saigon","","","Vietnam","10.8230989","106.6296638","Southeast Asia","","","","['rec6JlkXvCzY30dWG']","","",""
"","Chile |  |  |  |  | ","","","","","","Chile","-35.675147","-71.542969","South America","","","","['recGqihjrO0xmbSSU', 'recBXbN6uEvRvcc7c']","","",""
"","United States | New York |  | Buffalo |  | ","","","Buffalo","","New York","United States","42.8864468","-78.8783689","North America","['recEhu57UMBKmdvzJ']","","","","","",""
"","British India |  |  | Bombay |  | ","","","Bombay","","","British India","18.9573688","72.8152621","South Asia","","","","['reczzEEtGIZ7fG1l5', 'recDvP2wuN5uLLqmq', 'rec5owKvjLPUSMjPQ']","","",""
"","Togo |  |  |  |  | ","","","","","","Togo","8.619543","0.824782","West Africa","","","","['rec6KcVqCvXI8GfzQ']","","",""
"","United States | Illinois |  | Oak Park |  | ","","","Oak Park","","Illinois","United States","41.8850317","-87.7845025","North America","","","","['recPN2Qkf3yd4ytdZ', 'recY3mTUleOhpe7Tq']","","",""
"","Mali |  |  |  |  | ","","","","","","Mali","17.570692","-3.996166","West Africa","","","['recjMD8QVUcjzrbZC']","['receclcSMXsDEZuZg']","","",""
"","United States | Montana |  | Anaconda |  | ","","","Anaconda","","Montana","United States","46.1262998","-112.9478359","North America","","","","['recfk5Poeo53AG7Z7', 'recAaLckF3DvuKhNI']","","",""
"","Malaysia |  |  |  |  | ","","","","","","Malaysia","4.210484","101.975766","Southeast Asia","","","['recrAaXXhIPMbulnW']","['recSx7RvDpkOcZiYC', 'recdUCTSimoLhHnVJ']","","",""
"","French Algeria |  |  |  |  | ","","","","","","French Algeria","36.7648031","3.0388428","North Africa","","","","['rec2UWPBAQZERp0oJ']","","",""
"","United States | Illinois |  | Chicago |  | ","","","Chicago","","Illinois","United States","41.8781136","-87.6297982","North America","['recrDGEIppZxA2bZO']","","","['recm9Gd9zf38ykYQp', 'recFP1C6u7c7Y1idA', 'rec9HDKwzVC3CRM2W']","","",""
"","Malawi |  |  |  |  | ","","","","","","Malawi","-13.254308","34.301525","East Africa","","['recVwm4xXszG9QwUU']","['recURRbIgveOeoPqf', 'rechCmMdNpei8Hc3B', 'reccwLwmzWRDl2jDc', 'recrsF1iHkSPjIVOU', 'recrxJMes8Cb5uy5V', 'recurk03qrHYoSq0f', 'recEwmO4uahaE4NY7']","['reccwLwmzWRDl2jDc', 'recR2GuqJRCNRrMzz', 'recQsolzcCIYAokXk', 'recyyXwkRyVnaP83W', 'reci5IJwEZTqw5NWW', 'recBbTAhbBLnlSTzK']","","",""
"","French Equatorial Africa |  |  | Mpili |  | ","","","Mpili","","","French Equatorial Africa","-14.88526","27.75709","Central Africa","","","","['recPxmrXdENsL9H4t']","","",""
"","South Africa |  |  | Postmasburg |  | ","","","Postmasburg","","","South Africa","-28.3092768","23.1084191","Southern Africa","","","","['recLJKB5F9CohOTgc']","","",""
"","Ghana |  |  |  |  | ","","","","","","Ghana","7.946527","-1.023194","West Africa","['rec2IOTyHklDXW9sv']","","['rec6a2aV35Av5J8GE', 'recNk4oqSzYFgciSx', 'recW2LITFLTa3ZxhL', 'recbNIVFNClhxKsC6', 'reccDWENP3Ky0jAlP', 'recQT0enOglLdfkpA', 'recWpCJL7I7DpeCu4', 'rec8DVYB2jkkyvDI6', 'rec8mtUVosvBtAoPc', 'rec9GzeF3N4Y7IJLp', 'recaCihhgBq9H5lgD', 'recabcFq2rA8odtel', 'reco6iaOYm6uUdprM', 'recCdkXP5jVXt4Mbr', 'recCipWybWw761Mfz']","","","",""
"","Paraguay |  |  |  |  | ","","","","","","Paraguay","-23.442503","-58.443832","South America","","","","['rec7dKnqo6HWN8K4f']","","",""
"","Zambia |  |  | Lusaka |  | ","","","Lusaka","","","Zambia","-15.3875259","28.3228165","Southern Africa","['recCbZxP6zua5eb6N']","","","['recoaQiFc0JoOewcW']","","",""
"","France |  |  | Paris |  | ","","","Paris","","","France","48.856614","2.3522219","Europe","['recf8tVNTzQKnq93d', 'rec7hFTr0nzshwBWo', 'recAQbxDGqSQfhVB9', 'recw9Z5hfpSNOweWH', 'reccojww9VcB6ugcr', 'recYY9lkzRmkcSDng', 'recltDQbX8rJFniXP']","['recp0P3jtvs9mzL3C', 'recAXprpVq3W2VJ5L']","['recJF9NZvTsRfGf4o']","['recSoGFMX0qkX0QNh', 'recJhJmyN1sObAjdK', 'recFkYi7vYIDKLOmr', 'recKlPkugIdO19esE', 'recHwLOAxR2wIBFFo', 'recNJ97o6hb5r3giR', 'recJF9NZvTsRfGf4o']","","","['rec1h2M3X4N0UduIL', 'recXWW163usBudK3w', 'reci05RYQudsRYE8O', 'recg6W1lHLDtNPmtl', 'recnVSPhm29F7aWnu', 'rec99dkO1W0FbINfZ', 'recj0yDyhCzlAxC5p', 'reckCrbmP4UxDn6ft', 'recsVHmZtrZOfxJUf', 'reckDuHEzOeitasPM', 'recWQy9UGsxIdNAqz', 'recqDIABr9ZmBzkuU']"
"","Mandatory Palestine |  |  | Acre |  | ","","","Acre","","","Mandatory Palestine"," - "," - ","Middle East","","","","['recFIWrtQatpOXegU']","","",""
"","Uganda |  |  | Gulu |  | ","","","Gulu","","","Uganda","2.7724038","32.2880726","East Africa","['recpic4G9JwNBXJFO', 'recblCKsUzFFSpETy']","","","['recHO9AeFrAOe1QdE', 'recGE7Fcz5oCLV3Qn']","","",""
"","Angola |  |  | Huambo |  | ","","","Huambo","","","Angola","-12.7739761","15.7468535","Southern Africa","","","","['recMeIiO8aE6LfHmn']","","",""
"","France |  |  |  |  | Lille","Lille","","","","","France","46.227638","2.213749","Europe","","","['recnJDp7SvPmZyHE5', 'recTqb8N4oBzldcDf', 'recw7oHEFLF0YumGj']","['recQASws74LVXg1uz', 'recFYUhCAwiAu7nDU', 'recgRrPmKVs96vgXb', 'recpunPYeZNIfSEuJ', 'rec4CYRVnHDOzI8JQ', 'recg3OsXJXKua2W8i', 'recK1wKCDE51nBdce', 'rec2ueQlTgNN8qNdy', 'recuX0VDAxSsM2x1h', 'recFv53wglSi8G2Bs', 'rec1qFjGLH21IWaId', 'recCYtX6FIbStbTkt', 'rec4LlkyVk8eHN4Ap', 'reczB9R1mKyZzCqkR', 'recSTwSArL1S88SmJ', 'rec2se6d3Rk3EWTc6', 'recSZwZrmZt2pZ65c', 'recrLnxJAErmeSian', 'recCD91SSvUYMAjIT', 'recBf76h9Z9hRlgZ9', 'recDJG1Mod6cvukP7', 'recK4H6TCZdgAOOWa', 'recLBgjUq9OaKW5Wv', 'recw7oHEFLF0YumGj']","","",""
"","England |  |  | Suffolk |  | ","","","Suffolk","","","England","52.1872472","0.9707801","United Kingdom","","","","['recfcQ3lo9tGnQ4HJ']","","",""
"","Mali |  |  | Katibougou |  | ","","","Katibougou","","","Mali","12.9254634","-7.527614","West Africa","['recG4dS6Wiu4K8UBv']","","","","","",""
"","United States | Illinois |  | St. Charles |  | ","","","St. Charles","","Illinois","United States","41.9141945","-88.3086867","North America","","","","['rectHb4Jj5tQuD8li']","","",""
"","United States | Minnesota |  |  |  | ","","","","","Minnesota","United States","46.729553","-94.6858998","North America","","","","['rec9ajwchEcPxxaqb', 'recS74ICqNCXXtfE7', 'rec7rsNBWymfi3n0E']","","",""
"","United States | Nebraska |  | Lincoln |  | ","","","Lincoln","","Nebraska","United States","40.813616","-96.7025955","North America","","","","","","","['recnpSNBj341YTM8B']"
"","Belgium |  |  |  |  | ","","","","","","Belgium","50.503887","4.469936","Europe","","","","['recnPIXLpb9GVXbCB', 'recBeSvAFNCKmTPDC']","","",""
"","Netherlands |  |  | Veenendaal |  | ","","","Veenendaal","","","Netherlands","52.0263009","5.5544309","Europe","","","","","","","['recv3lJAQzmXZCmYB']"
"","Cameroon |  |  |  |  | ","","","","","","Cameroon","7.369722","12.354722","Central Africa","","","['rec1v9Q1csdMsxCxz', 'recgObAGi7Z3vv4RN', 'recX9amaYbn5vIO8m', 'recKoyWKEagbQQTs4', 'rec9AeYrNbORiI3BG', 'recaEXdUYZk3OmqFS', 'recdKqeeCyeBxtpdp', 'recdvFDm476tq1kup', 'recd8tFYoPRwKN9XA', 'recjISVklXMU24xBF', 'recNfotXxLsfAi0K5', 'recNwEMbT3LqfHbU0', 'recPzjqfjTvupQLrr', 'recYePxjaLgwwW4sW', 'recZ9rKagXrQ8mDBD', 'rec2VbdMr8vwdPJtC', 'rec5ZpzryXyI6MI3r', 'rec80eRBf8t9TUBav', 'recae4Zo0p8a5oRRo', 'recl179rnn4gMfuB0', 'recl4ltwuQSVbrcXA', 'reco7L2Mq0NwrF2k3', 'recs0ds4gPn5YhOhk', 'recuKTY8yv7313XMt', 'recudLMPIVMncnjEc', 'recvySyPNrBQDAEAA', 'recBYWCpSLZ8etK7y', 'recCrHOu8mSrm3RVo', 'recCzLUilTWuN409M', 'recDH7nmZyYHEtH2J', 'recFGaffnmsrrgSvl', 'recFoNo12s2wucbNE', 'recGasbr9dWjRY3Wa']","['rect6y3c7gSX8qX7U', 'recTIehfkS2sb2tsQ', 'recfRqmv7utWXnODQ', 'rec9AeYrNbORiI3BG', 'recl4ltwuQSVbrcXA', 'recCrHOu8mSrm3RVo', 'rec80eRBf8t9TUBav', 'recNfotXxLsfAi0K5', 'recDH7nmZyYHEtH2J']","","",""
"","Canada |  |  |  |  | ","","","","","","Canada","56.130366","-106.346771","North America","","","['recYvHS3XNKHjAGXx', 'recu036708kzyd0Zn', 'recHZeyGtRctzUFg5']","['recAbfHcXuAOA5Hi7', 'recZc9gogNpH45OCr', 'reckfo0WfjJq540VZ', 'recJYagHqnaWxcVWj', 'recnc5PT95ZAkj9hG', 'reczD3Wxfm8OYWVCD', 'recRnNxDyvn8kzdxr', 'recveaKCQGNHhOuHR', 'rectkYr6nIVAivrmK', 'recqAs7NtGQxQp55I', 'recByYWkpRbqWypLc', 'recWTREYQqMq8kZMp', 'recFfP96GVk7Qyfmp', 'rec2FGc2AjvxDY8Ko', 'recPru4bzCYYOEOtP', 'reckFpLMr9F2ysETd', 'rec4i8SVrxzCstjL4', 'recjbEZqEwys5eF6o', 'recfX1D3Mx96epqTr']","","","['recA0EwqcVJzbFPav']"
"","England |  |  | Newcastle |  | ","","","Newcastle","","","England","54.978252","-1.61778","United Kingdom","","","","['recuW1ECIBxyatChr']","","",""
"","United States | Oklahoma |  | Tulsa |  | ","","","Tulsa","","Oklahoma","United States","36.1539816","-95.992775","North America","","","","['recOWwgGyhg1G4JFc']","","",""
"","Germay |  |  | Frankfurt |  | ","","","Frankfurt","","","Germay","50.1109221","8.6821267","Europe","['recR1d4GMW6uEv8r4', 'recfbwz75xBOMNATa']","","","['rectrZFZqMzv02eil']","","",""
"","Morocco |  |  | El Jadida |  | ","","","El Jadida","","","Morocco","33.2316326","-8.5007116","North Africa","","","","['recuRsq6ICypyArrK']","","",""
"","Portuguese Guinea |  |  |  |  | ","","","","","","Portuguese Guinea"," - "," - ","West Africa","","","","['rec6RTbz8BDa9nqXe']","","",""
"","South Africa |  |  | Doornfontein |  | ","","","Doornfontein","","","South Africa","-26.194851","28.0552003","Southern Africa","","","","['recNAQVBBlO8rp7LF']","","",""
"","Northern Ireland |  |  | Castledawson |  | ","","","Castledawson","","","Northern Ireland","54.7782341","-6.5579191","United Kingdom","","","","['recUw8mTUTbLmgfsf']","","",""
"","Byzantine Empire |  |  |  |  | ","","","","","","Byzantine Empire","37.6865716","-97.3625225","Europe","","","","['recv4hGjyhk4GSnAb']","","",""
"","Canada |  |  | Galt |  | ","","","Galt","","","Canada","43.360053","-80.306239","North America","","","","['recOM6ZWBA5BOEiCs']","","",""
"","Uganda |  |  |  |  | ","","","","","","Uganda","1.373333","32.290275","East Africa","['recnYPgFWZ8DqiiH5']","","['recHO9AeFrAOe1QdE', 'recKFUhU4E0dTcJIJ', 'recPY3M42Z0i3kYMT', 'reckyy20BZvp8udKy', 'recXn00czF9RB5LoZ', 'rec7rsNBWymfi3n0E', 'recAcm0AN2eQmglfX', 'recEcYxWs4iccE5IM', 'recHx5Jw9EWDKuy8P']","['recZ1ZgFDwh5GSZcA', 'recP4jyvCiE0AtoNV']","","",""
"","Turkey |  |  | Yayladere |  | ","","","Yayladere","","","Turkey","39.227956","40.069078","Europe","","","","['recYGKJbklTvDooHD']","","",""
"","United States | Massachusetts |  | Milton |  | ","","","Milton","","Massachusetts","United States","42.2495321","-71.0661653","North Africa","","","","['recbXtuhO5IRgiX1U']","","",""
"","Italy |  |  | Naples |  | ","","","Naples","","","Italy","40.8517983","14.26812","Europe","","","","['rec8pzuA8O06aR2G7']","","",""
"","South Africa |  |  | Durban |  | ","","","Durban","","","South Africa","-29.8586804","31.0218404","Southern Africa","","","","['recZCHkAMEtH7xn9G', 'rec7C07UyBGMs8tw8', 'recyTF3ighE5lXHsa', 'recrc5LpJ2IU87Lww', 'reclETy4Ysj57U6Pe', 'recX8RB530gqZ4KJi', 'recBIvEPMfSnuke1H', 'recdQvQ2UShPOxRco', 'reclUNvSZgS44cVWd', 'rec5qa02ZnY813Q2k', 'recZJdFemSoMmGAOx', 'recbr2uGuuo6ttI8H', 'reckwKVUPJEEf6SQR', 'rec5nSFKP1iwt8SxG']","","",""
"","Germany |  |  | Cologne |  | ","","","Cologne","","","Germany","50.937531","6.9602786","Europe","","['recmGz2Rfg5q4M3yk']","","['recaxzAZy8VXpXPaF']","","",""
"","Nigeria |  |  | Umuahia |  | ","","","Umuahia","","","Nigeria","5.5249526","7.4922407","West Africa","","","","['rec0RMACVvz2ebMNf', 'rec0HEPeVkWGZrxHa']","","",""
"","Trinidad and Tobago |  |  |  |  | ","","","","","","Trinidad and Tobago","10.691803","-61.222503","Caribbean","","","['recSNXGgYnUw8V2xH']","['reciHJ6yX59d6jKLC', 'recftR57TlJLZMFOx', 'rec5XDTJHDsPhcldB', 'recqjvcBZc3pKUTRF', 'recfVtEOOp5wDZw1x', 'recijWTGSH6Bj8D9u', 'recYKz5F6eRMmwdnS', 'recPGpeciDezdSNta']","","",""
"","British Kenya |  |  | Nairobi |  | ","","","Nairobi","","","British Kenya","-1.295695","36.816929","East Africa","","","","['recI3YPVj0ebcG4bC', 'receCearAOVy9Tomb']","","",""
"","Canada |  |  | Montreal |  | ","","","Montreal","","","Canada","45.5016889","-73.567256","North America","['recJefJ2y0FklJlcg', 'recSaMFhJBdpTc6yO']","['recVqeH9GcwzvGsoM', 'recv7Hcu2htfwjy4x']","","['recOYkUxm8U2BhrtB', 'recMHY2fHhsND85xA', 'reci2Pf0WyhbHNJSM']","","",""
"","South Africa | Limpopo |  | Mankweng |  | ","","","Mankweng","","Limpopo","South Africa","-23.8836683","29.7078785","Southern Africa","['rec3tGPsSMuQPpbcr']","","","","","",""
"","South Africa |  |  | Mafeking |  | ","","","Mafeking","","","South Africa","-25.855978","25.64031","Southern Africa","","","","['recN2CQ0lURxrndsj']","","",""
"","South Africa |  |  | Worcester |  | ","","","Worcester","","","South Africa","-33.65389","19.4616074","Southern Africa","","","","['recOw9APTEMWBGJk4']","","",""
"","Nigeria |  |  | Ojoto |  | ","","","Ojoto","","","Nigeria","6.0641892","6.8645856","West Africa","","","","['recBvLFtelOVzL0YK', 'recrexhZOa0TN5I1O']","","",""
"","Nigeria |  |  | Ikenne |  | ","","","Ikenne","","","Nigeria","6.8717415","3.7105118","West Africa","","","","['recsjOqe25o0tu7Kq']","","",""
"","Ghana |  |  | Wheta |  | ","","","Wheta","","","Ghana","7.946527","-1.023194","West Africa","","","['recw6xteDA4loPFr8', 'reclkjf5RAoQfCuhd', 'recMtz94K601qz8dX', 'rec0GSrZvPkQtiwxs', 'recHxRdi7z6gcnkZ6']","['recW2LITFLTa3ZxhL', 'rec0GSrZvPkQtiwxs', 'recqZZToLmc4MZm2q', 'recHxRdi7z6gcnkZ6', 'recy03wej1o7pR0VJ', 'rec0TXkbX1WorJ145', 'rechGlfE3TNraRFr7', 'recnMeTALaWPlsO9r', 'recaE3xZF2cKk8k8Z', 'reccwviLCK5iebFvL', 'recXwEJNp72E6tuHN', 'recq96F5cR5VthmYG', 'recCdkXP5jVXt4Mbr', 'recw6xteDA4loPFr8']","","",""
"","Ghana |  |  | Accra |  | ","","","Accra","","","Ghana","5.6037168","-0.1869644","West Africa","['recWTYOjdE4iyvqWj', 'recgQwTy8MZ3hhgA6', 'recrM6qG5giOBoDjZ']","['recTAxX8SvybpkE1I']","","['recjkqm7t7XPn8mab', 'recu1CfihvRgMNg2f', 'recNk4oqSzYFgciSx', 'recCipWybWw761Mfz', 'rec9GzeF3N4Y7IJLp']","","",""
"","Germany |  |  | Dusseldorf |  | ","","","Dusseldorf","","","Germany","51.2277411","6.7734556","Europe","","","","","","","['reccTuTMoaICaZDWk']"
"","United States | Ohio |  | Hicksville |  | ","","","Hicksville","","Ohio","United States","41.293106","-84.7619032","North America","","","","['rect5I796U6SJM4tk']","","",""
"","South Africa |  |  | Vrededorp |  | ","","","Vrededorp","","","South Africa","-26.1939215","28.0178768","Southern Africa","","","","['recNg2hNhgqBvGyf4']","","",""
"","Kenya |  |  | Nairobi |  | ","","","Nairobi","","","Kenya","-1.2920659","36.8219462","East Africa","['recIuDplcCMTO7LGM']","","","['rec14aRHsNcLXpMuu', 'recUPmxPKQgSMzQF1', 'recW0pcTosEyTilM0']","","","['recV184TjfXo3MjvY', 'reckUQFcwM824zPBh', 'recNo2rWicHO7t5BA']"
"","Panama |  |  | Panama City |  | ","","","Panama City","","","Panama","8.9823792","-79.5198696","South America","","","","['recescZLcFPj6Iwur']","","",""
"","England |  |  | Birmingham |  | ","","","Birmingham","","","England","52.486243","-1.890401","United Kingdom","['reckCinxwCpSrlLAH']","","","['recri8nQBWiBukd4s', 'receus3imh8VIyG83', 'recswzVhqmNpBfFOZ', 'recwaj71KYkbg5TRn', 'rec95LnyjDyeX4POh', 'recmKxr3Npu8neZ9l']","","",""
"","United States | Tennessee |  | Nashville |  | ","","","Nashville","","Tennessee","United States","36.1626638","-86.7816016","North America","","","","","","","['recE99FOnvoflZxZA']"
"","Nigeria |  |  | Zungeru |  | ","","","Zungeru","","","Nigeria","9.8097475","6.1553498","West Africa","","","","['recPqiwAFiwt5ngyn']","","",""
"","Zimbabwe |  |  | Salisbury |  | ","","","Salisbury","","","Zimbabwe","-17.8216288","31.0492259","Southern Africa","","","","['recaLBDKPomp4cstB', 'recyWOpJxb7Wstq7V']","","",""
"","Senegal |  |  | Kolda |  | ","","","Kolda","","","Senegal","12.9107495","-14.9505671","West Africa","['recWQci3ZaBGmSzj8']","","","","","",""
"","New Zealand |  |  |  |  | ","","","","","","New Zealand"," - "," - ","Oceania","","","['recxlGhVC45Z20VPD']","['recxaLYnXiv99dDgR']","","",""
"","United States | Pennsylvania |  | Pottsville |  | ","","","Pottsville","","Pennsylvania","United States","40.6856456","-76.195499","North America","","","","['recZTTPggfJHEoREx']","","",""
"","Wales |  |  |  |  | ","","","","","","Wales","52.1306607","-3.7837117","United Kingdom","","","['rec9C9KiiLJAEiVds', 'recHD5bGZB1PgC5wb', 'recHmxp9WqUZfj9kK']","['recWKLA8rtq7Naxog', 'rec8JrnDz4xSMAzEp', 'recWAq47HI49vEQAe', 'reckddctUfxwu9Va1', 'recTj6CLDK1BDG4R7', 'recJey9EGj2oZ5WFb', 'recFSoykSvx3KQ3xb', 'reckaKub73PsGpxE2', 'recDm8s1X9i7nkI4h', 'recRoYyMjCGzs2qgJ', 'recrMHwMCoQP4maIf', 'recHD5bGZB1PgC5wb']","","",""
"","United States | Illinois |  | Springfield |  | ","","","Springfield","","Illinois","United States","39.7817213","-89.6501481","North America","","","","['recycoPj8HyvTF0WA']","","",""
"","England |  |  | Laleham |  | ","","","Laleham","","","England","51.4096047","-0.4881633","United Kingdom","","","","['rectb2diwbIUCvFyN']","","",""
"","French West Africa |  |  |  |  | ","","","","","","French West Africa"," - "," - ","West Africa","","","","['recYQyc4V78kEeOIl']","","",""
"","Russian Empire |  |  |  |  | ","","","","","","Russian Empire","59.9357512","30.3206011","Europe","","","","['recEHat0wfmYIgmKL', 'rect7drfkkarKRhCF', 'recIG8CEq36oz63JD', 'rec4bZWi7XAxoCIfD', 'rectXUdxS91Wyk8WU', 'recAnuKE1dM10W0oV']","","",""
"","Ukraine |  |  |  |  | ","","","","","","Ukraine","48.379433","31.1655799","Europe","","","","['recd4iigsQBoLJeJY', 'recyFTfBPEMWzvtpu', 'recYiqiCp4W4moXD7', 'recnnfI3DRd6SDRja']","","",""
"","Zimbabwe |  |  | Bulawayo |  | ","","","Bulawayo","","","Zimbabwe","-20.1457125","28.5873388","Southern Africa","","","","['recu56QczlI4u3fXu', 'recnFrigN40LFGnJG', 'reclNLFurKtpDbUXG']","","","['recgCLFz6hqIMxMDv']"
"","Poland |  |  |  |  | ","","","","","","Poland","51.919438","19.145136","Europe","","","['reccjmVhEpX2qJKn4']","['recS6p1rJgKNizShf', 'recyUZErGmQJabaRz']","","",""
"","Austria-Hungary |  |  | Kaposvar |  | ","","","Kaposvar","","","Austria-Hungary","46.3593606","17.7967639","Europe","","","","['recQm1tuYJDjWi1AV']","","",""
"","England |  |  | Essex |  | ","","","Essex","","","England","51.5742447","0.4856781","United Kingdom","['recgMuKrIXoVe1EPp']","","","","","",""
"","Germany |  |  |  |  | ","","","","","","Germany","51.165691","10.451526","Europe","","","['recg4keKAgyWpAhnz']","['recR5ozQC8BdAtBze', 'recdtBZLmLGtSswXg', 'recORxviS96hIfUCE', 'receOc6DVOlxjD4Fe', 'recF2rvnI1AB46I0e', 'receDab4t5r4Dj4Ow', 'recGxq3nO436x3eBz']","","",""
"","Equatorial Guinea |  |  |  |  | ","","","","","","Equatorial Guinea","1.650801","10.267895","Central Africa","","","['recs1Sj05AmcrZUCK']","['recMSs7eeHg1D98zj', 'recOuke4f2ojj5lQw']","","",""
"","South Africa |  |  | Sutherland |  | ","","","Sutherland","","","South Africa","-32.4100977","20.670528","Southern Africa","","","","['recTaUK751BGeaobm', 'recztKDfNVxv4hJYq']","","",""
"","Nigeria |  |  | Port Harcourt |  | ","","","Port Harcourt","","","Nigeria","4.815554","7.0498442","West Africa","","['rec6zZrhCbGia6MyF', 'recm04SuAl9ct8vSt']","","['recz9jTlvNf8rtvF6']","","","['recgui426equeyAU0']"
"","Nigeria |  |  | Ogbomosho |  | ","","","Ogbomosho","","","Nigeria","8.1227496","4.2435893","West Africa","","","","['recbpa8bqhQzwppEY']","","",""
"","England |  | Kent | Tunbridge Wells |  | ","","","Tunbridge Wells","Kent","","England","51.132377","0.263695","United Kingdom","","","","['recHqhKMTrYFElsxy']","","",""
"","Russia |  |  | Moscow |  | ","","","Moscow","","","Russia","55.755826","37.6172999","Europe","['recFn6m3UzWrYN6X2']","","","","","",""
"","Namibia |  |  |  |  | ","","","","","","Namibia","-22.95764","18.49041","Southern Africa","['recPXYjKnI5tvqB1p']","","['reccgZphQA5w8wvQy', 'recdkUK6FqkHutaxM', 'recemOCxnBg0nBR6o', 'rec1VTKIv7b3MMzGX', 'rec3uOp60Jp0fPNTF', 'rec5duoRXwbFipWNI']","['rec6eOZhIXojVvvyR', 'recllwM2wWxQdtkGS', 'recz5uiI5wdl9twIG']","","",""
"","United States | Washington |  | Seattle |  | ","","","Seattle","","Washington","United States","47.6062095","-122.3320708","North America","['recMDqxs4xmF6u0Si']","","","['recajUI3U8174sOGN', 'recjn1e1ShaE0ikQD']","","",""
"","Uganda |  |  | Kampala |  | ","","","Kampala","","","Uganda","0.3475964","32.5825197","East Africa","['rec6DbUCsPKHJWa5e']","['recdUGu4e76koJmUd']","","['recRs6DJbnXZ2mifw', 'reccRpor2d3jFC1Nq']","","",""
"","Nigeria |  |  | Ososa |  | ","","","Ososa","","","Nigeria","6.7957362","3.8528061","West Africa","","","","['recuc9zwq8GUPxtSK']","","",""
"","United States | Kentucky |  | Guthrie |  | ","","","Guthrie","","Kentucky","United States","36.6483777","-87.1663917","North America","","","","['recnsqNddBP3QZy1f']","","",""
"","South Africa |  |  | Natal |  | ","","","Natal","","","South Africa","-28.5305539","30.8958242","Southern Africa","['recp2jQbPVTdfWEE6', 'recM11VAW2fWzPDKL', 'reckwS53DxJW2VHxL', 'recKjD2SoudumO98D']","","","['rec4lc52d1rr49UHG', 'recrC3ZTGPprPpxJA', 'recJqcY8p3luR5XZN']","","",""
"","Swaziland |  |  |  |  | ","","","","","","Swaziland","-26.522503","31.465866","Southern Africa","","['recc4xJH9wxTyIUMB']","","","","",""
"","England |  | West Yorkshire |  |  | ","","","","West Yorkshire","","England","53.8108","1.7626","Europe","","","","['recWYlosZE0Fn4mLZ']","","",""
"","Southern Rhodesia |  |  |  |  | ","","","","","","Southern Rhodesia"," - "," - ","Southern Africa","","","","['rec9226rOuIKMsJr2', 'recrzsjNIueTeUVtA', 'reccAMJIu09sjNRp8', 'recpAwXRhCAadSZRC', 'recZP81tasqf4NhmM']","","",""
"","Zambia |  |  |  |  | ","","","","","","Zambia","-13.133897","27.849332","Southern Africa","","","['reczpEBUuZOxMwZYD']","['rec9Ih4VHNATBvX5S', 'recbqlPIV0iPxnhkl']","","",""
"","Canada | British Columbia |  | Vancouver |  | ","","","Vancouver","","British Columbia","Canada","49.2827291","-123.1207375","North America","['recIg9wrsAgzhFdSu']","","","['rec5vkc1GZr57mtYV', 'recrKG6TROCRbke4Z']","","",""
"","United States | Missouri |  |  |  | ","","","","","Missouri","United States","37.9642529","-91.8318334","North America","","","","['rec2CIPZQriDcjGVE']","","",""
"","South Africa | Cape Province |  | Bonnievale |  | ","","","Bonnievale","","Cape Province","South Africa","-33.9158529","20.0806996","Southern Africa","","","","['recIGSwI3zYEGJaaM']","","",""
"","France |  |  | Verson |  | ","","","Verson","","","France","49.155543","-0.451351","Europe","","['rec5BDPRfKMla90lF']","","","","",""
"","Algeria |  |  |  |  | ","","","","","","Algeria","28.033886","1.659626","North Africa","","","['reccUjAXGgAStfPIA', 'recd6G2vV1io42TRb', 'recUBnsVpMUCyl3u2', 'recYVWZzsL04Syfbo', 'recZAoDD0O7Vj2lIi', 'rec2jWD3uItCkydPM', 'rec6kB10PZu7qTAZl', 'recy3QS4aVGlkIec2', 'recFwsnAa13M72Pmz', 'recKXsyi0hIKw3Dog']","['reczMgmlj8FiUI4QI', 'rec2kurxm6EDgsTFm', 'recVC8MWDzkqQgVa3', 'recFwsnAa13M72Pmz']","","",""
"","Guadeloupe |  |  |  |  | ","","","","","","Guadeloupe","16.265","-61.551","South America","","","","['recsOLUgKyXUyHh3O']","","",""
"","South Africa |  |  | Cape Town |  | ","","","Cape Town","","","South Africa","-33.9248685","18.4240553","Southern Africa","['recmFvtzUMqaFmOoC', 'recOB6AcoKRzor36T', 'recFauqOCVHvsrhDD', 'recVDC15QH5qR9OzA', 'rec4dPPUK3l4kUFwm']","['recb4S5dmTk22UkrB', 'recewRvac0GsLWCDx', 'reclYEGQReKBzmULU', 'recOhxcRu4BXtE4ST']","","['recc52Vz7dNYOt2CB', 'recOcLoIZSFwMOqfm', 'rec4PSLJqOJn0gY2R', 'rec9NVjOrXGIXxw9F', 'recFopeEgah7cXTgt', 'recyw3iYZDrBScLGY', 'rec7pcqq0K5J5hgiJ', 'recsxiHf60mUiowcG', 'rec9K8rwRHOdeLU5I', 'recAu2PgWA3jGoDY7', 'rec6y5x5R0UTriEEt', 'rec7Gjte8crN200nS', 'recqQE1lciAspjAir', 'recuMYHitL8q65meA', 'rec0XMcvyIa24y5mI', 'recmqnYK6lqXw6wLD', 'recSq1b9s8s15EVEE', 'rec6X3fUOGsUP83wJ', 'rec3OZM1rii2Anmdk', 'recHrXIk1RP72ILAr', 'reciZhwdneWYaUOFe', 'recfVyP7UyZzf3Beh', 'recGJR67oRLNKOGAx', 'recuOu01Wx1PSzoBx', 'recac82gjCns3sIsx', 'recRn5wgUprJCcTxe', 'recYQ76CM6x2MY1dQ']","","","['recadniZrGSrxejUc', 'recg44jiTURQsepfX', 'recw6N3ltjrOCXqWq', 'reck5xcR3GoDfQy6k', 'recJlRVhcyEr0JW8a', 'recXTnqUtYDNCBqk0', 'reccegMyaZmmzn4hx', 'recxq15WOgg1YwL7j', 'rect46PrIYgnKcOP4', 'recoZXHGIaNz8qxDQ', 'recn4ipWs8tbw6Lo6', 'recxIbIhhVMS94M8y', 'recJfjWxcIgl25E7h', 'recejcXU9TmJpGt8v', 'rec0AXobCaUyqEPsH', 'recmD6Xi4RgqEAYyN', 'recCZOYSWnEY1mfOB', 'recNGbWkunrExznLH', 'recADPflw7tSvi47m', 'recVLvW0TtQU77BYZ', 'recT0KSXPTJN7746s', 'recMl5cbxAdYHFAPD', 'recnI2GlubCSdndfj', 'recMgolUhYxA64gHz']"
"","Mali Empire |  |  |  |  | ","","","","","","Mali Empire","34.034802","-118.258121","West Africa","","","","['recx66ImZY817tRe1', 'recsZrfPAX1STXxZT']","","",""
"","Brazil |  |  |  |  | ","","","","","","Brazil","-14.235004","-51.92528","South America","","","","['recd4Kn7HJSHA2aeo', 'recoVqemqRXhiWZVF']","","",""
"","Bulgaria |  |  |  |  | ","","","","","","Bulgaria","42.733883","25.48583","Europe","","","","['rec9r7jSM5nMf7Bhl']","","",""
"","South Africa |  |  | Kimberley |  | ","","","Kimberley","","","South Africa","-28.7282384","24.7499112","Southern Africa","","","","['reczY4HgBRDaqL1fV', 'recrQtiEXObDqZzT2', 'recrjEiNsBd3CFPsI']","","",""
"","Spain |  |  |  |  | ","","","","","","Spain","40.463667","-3.74922","Europe","","","['recxe16N7W3sFaTce']","['reczkvGVbGZS1YA8N']","","",""
"","Nigeria |  |  | Calabar |  | ","","","Calabar","","","Nigeria","4.9757165","8.3417006","West Africa","['recItBGSx5eXcqcQn']","","","['recIYQSlGmRFxXzQt']","","",""
"","Ecuador |  |  | Quito |  | ","","","Quito","","","Ecuador","-0.1806532","-78.4678382","South America","","","","['recciWejAX4OUq5gW']","","",""
"","South Africa |  |  | Klerksdorp |  | ","","","Klerksdorp","","","South Africa","-26.8598225","26.6317514","Southern Africa","","","","['recILPJVJuPdNhbGD']","","",""
"","South Africa |  |  | Fish Hoek |  | ","","","Fish Hoek","","","South Africa","-34.1340882","18.4187029","Southern Africa","","","","","","","['reczwXhioCJMprezj']"
"","United States | Wisconsin |  | Kenosha |  | ","","","Kenosha","","Wisconsin","United States","42.5847425","-87.8211854","North America","","","","['recYjruWhizmN88I9']","","",""
"","South Africa |  |  | Potchefstroom |  | ","","","Potchefstroom","","","South Africa","-26.7145297","27.0970475","Southern Africa","['recaIQK9G0k1j2KN1']","","","","","","['reciStvQzHZYJBUp4']"
"","United States | New York |  | West Point |  | ","","","West Point","","New York","United States","41.3914827","-73.9559721","North America","","","","['rec72UoLjlt9Eaohh']","","",""
"","England |  |  | Sussex |  | ","","","Sussex","","","England","50.9280143","-0.4617075","United Kingdom","","","['recHzXIe2198kRhr5']","","","","['recJbYzmlyMBcZJfC']"
"","Sierra Leone |  |  | Freetown |  | ","","","Freetown","","","Sierra Leone","8.484444","-13.234444","West Africa","","","","['recV9Z8bx3Zt0Kuwv', 'reciP7sU88UTTnOvf', 'recMHf9tSBUwlcoOU', 'reclxSFvNotbuWBoG', 'recsvlVn5DhagcSPb', 'recgsQbYnpmfO4jZw']","","",""
"","Uganda |  |  | Koboko |  | ","","","Koboko","","","Uganda","3.4167992","30.9589496","East Africa","","","","['recSug3i1wNsqqBMG']","","",""
"","Tanzania |  |  |  |  | ","","","","","","Tanzania","-6.369028","34.888822","East Africa","","","['recR7zpn21nSVp7NS', 'recsHJndCE2nDxE9I', 'recERC4DcfWMSBCTE']","['recXXj3rqxEWMI5AO', 'rec8VAGcwlipEDne7', 'recuRnp3X7d2W9Bx3', 'recDGBtNDeMgPckHj', 'recERC4DcfWMSBCTE']","","",""
"","United States | West Virginia |  | Keyser |  | ","","","Keyser","","West Virginia","United States","39.4409277","-78.9739156","North America","","","","['recz84JXn0vtJStTi']","","",""
"","Italian Libya |  |  |  |  | ","","","","","","Italian Libya","32.8935927","13.1923297","North Africa","","","","['recRSDPceuUp7u2Sm']","","",""
"","Senegal |  |  |  |  | ","","","","","","Senegal","14.497401","-14.452362","West Africa","","","['recce49CVohdYLw2s', 'recBdxaNWIHd4zhkg', 'recK4TZnSTzzUQFzj', 'reckfQPSei4IyFMAs', 'recCjGpwBtoXU3ti7', 'recXmxJZFLC42VKkU', 'recTPSCyEfDldqx8u', 'recs7cHZgrJOeAKn9']","['rec8fhflJUPzNCHK1', 'recvwMhQk3UEaVfHO', 'recCoGxCEpxWnTLlc', 'recUnEsU7G7M9JnIN', 'recY5gbSG9bLU2JQe', 'recq25SJMOJ6zStbR', 'recDjntZjZh9IouWS', 'rec2TlU0LQbcgAiXc', 'receKun0aLot3KvXn', 'rechFkWXfWXoIEQCO', 'recs7cHZgrJOeAKn9']","","",""
"","South Africa |  |  | Pietermaritzburg |  | ","","","Pietermaritzburg","","","South Africa","-29.6006068","30.3794118","Southern Africa","['rec9X1tMBfAiWmwFl']","","","['recTWiV1axyEJr0fq', 'recfW5lkD4rcHVR3p', 'recqPWlAqJDgH9c69']","","","['recplelkWTy7jNeH2']"
"","Malaysia |  |  | Kuala Lampur |  | ","","","Kuala Lampur","","","Malaysia","3.139003","101.686855","Southeast Asia","","","","['recrAaXXhIPMbulnW']","","",""
"","Nigeria |  |  | Owerri |  | ","","","Owerri","","","Nigeria","5.489059","7.0175879","West Africa","['recNAf5jD8a4oCjJS']","","","['rec0VPjg7qiVPPrxl']","","",""
"","South Africa |  | Sharpeville | Vereeniging |  | ","","","Vereeniging","Sharpeville","","South Africa","-26.6864257","27.8750976","Southern Africa","","['recBuFLFtsuyV5C1H']","","","","",""
"","Belgian Congo |  |  |  |  | ","","","","","","Belgian Congo","-5.8547432","13.0567605","Central Africa","","","","['reclQJruf2IDM1rs5', 'recjGFEFAJKLvlVqW']","","",""
"","Madagascar |  |  | Tananarive |  | ","","","Tananarive","","","Madagascar","-18.8791902","47.5079055","East Africa","","['recL4Dr6Np11Ugj3P', 'rec3a3fUFnYztCuDN', 'recRQpgVOAv0Gk6KU']","","","","","['recLk7PaDmJeBeM3d', 'receDKWxCis7S6KSs', 'recoQQjnLtIJJVYNy', 'recZhZPp4D3c20McZ']"
"","Zimbabwe |  |  | Harare |  | ","","","Harare","","","Zimbabwe","-17.8216288","31.0492259","Southern Africa","['rec1JTP1il8NyQldy', 'reco8l8xeKCuC2hFK']","['recmPtPD4VWtWRuZ0', 'reczw6PdGvnIKUHcX']","","['rec3pi2Sm1qAhCu6d', 'recWjhrxnroWNyGz3', 'recFBtKQNeaR78CD7']","","","['recHRjRfT9Ytuz1mi']"
"","Madagascar |  |  | Antananarivo |  | ","","","Antananarivo","","","Madagascar","-18.8791902","47.5079055","East Africa","","","","['recS6VRZbkRMZ4Apa']","","",""
"","England |  |  | Sheffield |  | ","","","Sheffield","","","England","53.381129","-1.470085","United Kingdom","['recxpM30Kg4EUW1Rb']","","","['recYSwzvQgN9G3mbj', 'recQQHUp9NNkTT7f1', 'recYsGr3UCq7LH6Wu']","","",""
"","South Africa |  |  | Johannesburg |  | ","","","Johannesburg","","","South Africa","-26.2041028","28.0473051","Southern Africa","['rec7mDWKcXSN0q9p0', 'recBwAKV7LHfr4iX2', 'recDl3fVuwNQT3OFo', 'recfTSvg0AtLZdIDh']","['recmftk3yyCrDVs0Y', 'recw9dVq0ifKimrP0', 'rec6HPmeUM3w9S7B4', 'recwRuCnjadth4cZU', 'recRiFqn5WXcfu6gE', 'recNu20gGVvzRMsod', 'recB0epE69obeD48c', 'recxjwHh9QSBtrxM9', 'recErYXxl1YC07YFd']","","['recPgm4Uyjhs03RyH', 'recNDLiL9FcG6VMnQ', 'recX3e6HGV46vJgzl', 'recVITrnlYju5VVOR', 'recADnJms1RS8ueJD', 'rec5BGwLzTuFn1Wef', 'recRT3BRC72sBNfZo', 'rec1Tx2Lc0ighEq1E', 'recua0uodOWT6dIei', 'recFpP1K9CXSfX930', 'recrlQPLPqlLHPAcx', 'recSM4vOK5Gf5tWwF', 'rec5bIFDLtBv91o9c', 'recWUkXNwQfeBxTpq', 'recUdQmKx7qE4ymS1', 'rec67UXWcSQoH1N7i', 'recGYs5kvd32xyNwN', 'recnFKS0W0mzvIUS9', 'recBkSju7Amb3z57K', 'recpGSbL4OTgYBIRl']","","","['recF07KfYjjsKbnSz', 'recYN91fhMQgFG4hs', 'recaOL5DmwflOJz1q', 'recwouBgbHqWyh17o', 'recXkB5ldNP9CO8bF', 'recKjgCFjZnKAd9uB', 'recEasWk83JKt9Qvk', 'recwB8UFdDHYdlMEC', 'rec3D4uxWYZfUhoGh', 'recZjgv7nOuuLoQKW', 'rec38loglUkRvTOVb']"
"","United States | Maine |  | Portland |  | ","","","Portland","","Maine","United States","43.6590993","-70.2568189","North America","","","","['recHTQsQR6tnVCfnP']","","",""
"","England |  |  | Manchester |  | ","","","Manchester","","","England","53.4807593","-2.2426305","United Kingdom","['recDjLuWmtM64mOeU']","","","['recNLRcdP6zZLpuSx', 'recyuOZePG0JmLzne', 'reckQnHMAUdeO2R0s']","","","['rec1nkWhXxnhMDgEv']"
"","Egypt |  |  | Cairo |  | ","","","Cairo","","","Egypt","30.0444196","31.2357116","North Africa","['recNaDmeWD8M281ta', 'rec9GvlfNoKjEslXQ', 'recAyEztkOWgd00zc']","","","['receLR3wSqzPmSQKF', 'recXVyvSeUlCaxYOZ', 'rec50XRLxmOAo95w7', 'recvmSjPFMAXrMHDT', 'rec8wb2NdwUbJf7SB', 'recU66wjoOJpQQdFP', 'rec0IzrDqEm0DLIkJ', 'recxqxo0ljGGIbKdR', 'recTn470AEnEccYWy', 'recyqim3acSX2IIsd', 'recoNfdAP0JvbmCf6', 'recCHB0NQG00xGvVW', 'reczC3lvOoOZ27cmL', 'reclOgb8yCTpPrzap', 'recxYoqDte8pikSUx']","","",""
"","Nigeria |  |  | Eluoma |  | ","","","Eluoma","","","Nigeria","6.7491405","6.0732146","West Africa","","","","['recLTfg4s1V8DoHZC']","","",""
"","Kenya |  |  |  |  | ","","","","","","Kenya","-0.023559","37.906193","East Africa","","","['recUkcuAdibO1kqF4', 'recW0pcTosEyTilM0', 'recg6emGnaZJTu1kR', 'recLIXLhWRsI7EJvA', 'recSEx3pIh8VIOnWA', 'recUPmxPKQgSMzQF1', 'rec14aRHsNcLXpMuu', 'rec4gYHm3JknRUFG6', 'recmbnksavJDTFqEs', 'recAXdVP1yzhUPJ5t', 'recFKATwBYCipaMtf', 'recFfhkVGSm6n33aG', 'recHWW7mEg77fGZrG']","['recksLzEuw76taheK', 'rec37zp2sfvgsuWjX', 'rec0m6IfLRnH5iMcb', 'recRrmkzq8t4e35ME', 'recxSzNbrRzRtVxfd', 'recAIBSHzNngwHczL', 'recj43ZQwIUq0j8mw', 'recQ73wl8S5EYAr4L', 'recWYQCMQo2nMeRZ7', 'recMvAhBWPxoch33v', 'recnMAZ1CAlKkna6V', 'reca7TotGFvdFlthL', 'recDyz1Zsu8DZWpfZ', 'reciq5ZIND8LySs30', 'recyn2n2FN1Om508X', 'recPY3M42Z0i3kYMT', 'recXn00czF9RB5LoZ', 'rec4gYHm3JknRUFG6']","","",""
"","South Africa |  |  | Umjilo |  | ","","","Umjilo","","","South Africa","-29.8842477","30.9790281","Southern Africa","","","","['recA1aXEUqGwSRQhI']","","",""
"","Russia |  |  | Zima |  | ","","","Zima","","","Russia","53.9225852","102.0423865","Europe","","","","['recrZ8r9dTiENzZg8']","","",""
"","South Africa |  |  | Heidelberg |  | ","","","Heidelberg","","","South Africa","-26.4910013","28.3841777","Southern Africa","","","","['recbI0AQPkpfOIg5T']","","",""
"","Uganda |  |  | Lira |  | ","","","Lira","","","Uganda","2.2580829","32.8874067","East Africa","","","","['recCQAKhlnynPLide']","","",""
"","South Africa |  |  | Simonstown |  | ","","","Simonstown","","","South Africa","-34.1937654","18.4356653","Southern Africa","","","","['recbF6fKg6E5WaoqP']","","",""
"","Trinidad |  |  |  |  | ","","","","","","Trinidad","10.691803","-61.222503","Caribbean","","","","['recdZCPYGp1fp7coB']","","",""
"","French Guiana |  |  | Cayenne |  | ","","","Cayenne","","","French Guiana","4.92242","-52.3134531","South America","","","","['recT67QFmOwmxwDhd']","","",""
"","United States | Massachusetts |  |  |  | ","","","","","Massachusetts","United States","42.4072107","-71.3824374","North America","","","","['recFbVNBqrHXtsBjz', 'recDuiyRmTb7IDGTM', 'recoZ4KpqGAflvPQU', 'rec5nllsuDSWzefyB']","","",""
"","Nigeria |  |  | Ilesha |  | ","","","Ilesha","","","Nigeria","7.6395498","4.7588042","West Africa","","","","['recikrHs8Kit42UK7', 'recw4CreojVI1JXrI', 'recrnDG5CfLCegxCj']","","",""
"","Democratic Republic of the Congo |  |  |  |  | ","","","","","","Democratic Republic of the Congo","-4.038333","21.758664","Central Africa","","","['recs1Sj05AmcrZUCK', 'recjGFEFAJKLvlVqW', 'recOuke4f2ojj5lQw', 'recQTWYssbeAgt7kh', 'recWwKbNNewGdbUnB', 'recZILgPJW36SNsuA', 'rec0sICNr4rc8cLrm', 'rec4BmfzW5FrPq5vm', 'rec8gxGLA77aowByx', 'recAIR3LbGbHLxb27', 'recBm365ERa79YhuS']","['reclp44nPFpENyXsk', 'recbrdJ4JhkPlcFMy', 'rec4BmfzW5FrPq5vm', 'recWwKbNNewGdbUnB', 'recBm365ERa79YhuS']","","",""
"","Uganda |  |  | Dokolo |  | ","","","Dokolo","","","Uganda","1.9130964","33.171699","East Africa","","","","['recKFUhU4E0dTcJIJ']","","",""
"","Southern Rhodesia |  |  | Rusape |  | ","","","Rusape","","","Southern Rhodesia","-18.5326251","32.1238552","Southern Africa","","","","['rec27lGFoJpJNTgpi']","","",""
"","Nigeria |  |  | Aluu |  | ","","","Aluu","","","Nigeria","4.9339066","6.9437098","West Africa","","","","['recudsl6LT4EYNGC7']","","",""
"","England |  |  | Durham |  | ","","","Durham","","","England","54.77525","-1.584852","United Kingdom","['rec8skiHiDl504C6f']","","","['recNu3hltRUqYA3tb', 'reciML359PlJkU6UA']","","",""
"","Senegal |  |  | Dakar |  | ","","","Dakar","","","Senegal","14.716677","-17.4676861","West Africa","","['recQXG7bqCCIHX5A5', 'rectH7XyEp98KKsJq']","","['reckfQPSei4IyFMAs']","","","['recBYpdC3ni2vJEBG']"
"","United States | Florida |  |  |  | ","","","","","Florida","United States","27.6648274","-81.5157535","North America","","","","","","",""
"","Holy Roman Empire |  |  |  |  | ","","","","","","Holy Roman Empire"," - "," - ","Europe","","","","['rec0yh2iz2tSqPJvT']","","",""
"","Nigeria |  |  | Nsukka |  | ","","","Nsukka","","","Nigeria","6.85229","7.39565","West Africa","['reckj7eYdB4uMid0U']","['recwUtCBfFx94hXbf', 'recYezaXvQEJZhKid']","","","","",""
"","South Africa |  |  | Bloemfontein, Free State |  | ","","","Bloemfontein, Free State","","","South Africa","-29.085214","26.1595761","Southern Africa","['recEq8ipuDLENtUwE']","","","['recgN7dTST3IRrdXJ']","","",""
"","Democratic Republic of Congo |  |  | Boma |  | ","","","Boma","","","Democratic Republic of Congo","-5.8499966","13.0499998","Central Africa","","","","","","",""
"","United States | Ohio |  | Cleveland |  | ","","","Cleveland","","Ohio","United States","41.49932","-81.6943605","North America","","","","['recVOnxiSUMC1GasF', 'recEJlMy5f4Jbnv3c']","","",""
"","United States | California |  | Madera |  | ","","","Madera","","California","United States","36.9613356","-120.0607176","North America","","","","['recdsLwOjE9raW7AH']","","",""
"","Canada | Ontario |  | Toronto |  | ","","","Toronto","","Ontario","Canada","43.653226","-79.3831843","North America","['reclxaA9AcUPtP7w4']","","","['recX9HhJJFEuZ8xGD', 'reccHVzze053V9N2d', 'recXE5fMoC5rt97rH']","","","['recwRBI5GkfXO4mqH']"
"","Iran |  |  | Tehran |  | ","","","Tehran","","","Iran","35.6891975","51.3889736","Middle East","","","","['recQWOLe1MBlcqFsV']","","",""
"","Djibouti |  |  | Djibouti City |  | ","","","Djibouti City","","","Djibouti","11.5720765","43.1456475","East Africa","","","","['recGlk6nuAj6Fn76a', 'recOSAm5YYGUeqIE0']","","",""
"","Argentina |  |  | Buenos Aires |  | ","","","Buenos Aires","","","Argentina","-34.6036844","-58.3815591","South America","","","","['recj48QTyUwAlYS6G', 'reccd5fpKbJa5YgoC', 'rec1c8BYTgvC88PTK']","","",""
"","Somalia |  |  | Baidoa |  | ","","","Baidoa","","","Somalia","3.1140502","43.651925","East Africa","","","","['rec4nIfxtwAORhRIn']","","",""
"","Canada | Ontario |  | Berlin |  | ","","","Berlin","","Ontario","Canada","43.4516395","-80.4925337","North America","","","","['recR28W837gSXCafF']","","",""
"","Nigeria |  |  | Enugu |  | ","","","Enugu","","","Nigeria","6.5536094","7.4143061","West Africa","","['recg53WPxBoNtcEyI', 'recVP4SUa9m5hdvmY']","","['recLizWsfHpJuZRhZ']","","","['rectJ4vNAp0Eoxllk', 'recjVqqru1VXVs2a8']"
"","South Africa |  |  |  |  | ","","","","","","South Africa","-30.559482","22.937506","Southern Africa","['rechGC8f9BU9IEm1N', 'reccZVVXVNxj3R7ct', 'recIn5ATPmEjmbIdX']","['recOn98YeUl83WmUJ', 'recmZlEhcyptKCYc4', 'receycrl35HWuSDwC', 'recYfYIQPOcHY3JjY']","['recPgm4Uyjhs03RyH', 'recZCHkAMEtH7xn9G', 'recN2CQ0lURxrndsj', 'recNDLiL9FcG6VMnQ', 'rechXmQTzrc8eiWTu', 'reczY4HgBRDaqL1fV', 'recX3e6HGV46vJgzl', 'recjKvU9JG4GftnEK', 'recA1aXEUqGwSRQhI', 'recbF6fKg6E5WaoqP', 'rec4lc52d1rr49UHG', 'rec7C07UyBGMs8tw8', 'recU0GqypnmAL84T5', 'recOcLoIZSFwMOqfm', 'rec9R8HNlWmIM3Kc1', 'recVITrnlYju5VVOR', 'rec4PSLJqOJn0gY2R', 'rec9NVjOrXGIXxw9F', 'reczK3i9PQzDoN6ks', 'recADnJms1RS8ueJD', 'recO7fQ9N6fKpWsLF', 'rec5BGwLzTuFn1Wef', 'recXocQrPdKiutDsX', 'recN80tQNHxdhyGvr', 'recIGSwI3zYEGJaaM', 'recBJcbdVcUytCiWZ', 'recNAQVBBlO8rp7LF', 'rectR28bCv8ff49mc', 'recyw3iYZDrBScLGY', 'recWYlosZE0Fn4mLZ', 'recTWiV1axyEJr0fq', 'rec7pcqq0K5J5hgiJ', 'recRT3BRC72sBNfZo', 'recTaUK751BGeaobm', 'recUow1lTAv9Qiv3V', 'rec1Tx2Lc0ighEq1E', 'rect3q1WANWYg0biY', 'recgISXyBjBqVvzuV', 'rec3p8J4f8VlC37h8', 'recP8lYpeTKBnKaCt', 'recj6nce2HJQvhZQO', 'recemAMbhntp1TXtr', 'recLu28d8J1ZVJSYJ', 'recXO2WiZ2k8Mqr6o', 'reclRsCpN7UKUY3Tk', 'reczs30MBeT3af0ro', 'recOw9APTEMWBGJk4', 'recf3EOuAm9HB9jGu', 'recbI0AQPkpfOIg5T', 'recuORZit1m0m3GHg', 'recILPJVJuPdNhbGD', 'recu43DbrUayW9AhJ', 'recLJKB5F9CohOTgc', 'receqlqqlevq2dKGL', 'rech3QgHUlRA7jtQu', 'recZS4g43q5Io7CpK', 'recsxiHf60mUiowcG', 'recyTF3ighE5lXHsa', 'rec9K8rwRHOdeLU5I', 'recNg2hNhgqBvGyf4', 'reczJCspFdg3hHW9B', 'recX8RB530gqZ4KJi', 'rec66xaJWSHHckvag', 'rechwpwmKoEr4Og7G', 'reckZxppFbnFjr37c', 'recWlBlSp2cBlOg5G', 'rec2xS0qROjzIPcQB', 'rec7r87evRZHnyt9B', 'recI7RKKlxAPM2YQz', 'recWUkXNwQfeBxTpq', 'recVvK0c3ENYv66pF', 'recUdQmKx7qE4ymS1', 'rec3OZM1rii2Anmdk', 'rec67UXWcSQoH1N7i', 'recllwM2wWxQdtkGS', 'recFopeEgah7cXTgt', 'recbdbtyjzeiO9Dg3', 'recbr2uGuuo6ttI8H', 'recb66fqXU2SPsHzG', 'recfH2tmVoMs22gVU', 'recfVyP7UyZzf3Beh', 'recfX1D3Mx96epqTr', 'recg6YsEWhje0llUn', 'rechyEarGmSxpTnGR', 'recifoF2vKlM2zrjf', 'recjI3jjkP4QR8iJZ', 'reckwKVUPJEEf6SQR', 'recNnZmvIE94vxXUT', 'recQN6vlyWXYSfZZr', 'recRn5wgUprJCcTxe', 'recRsdd7A9ip9uUVk', 'recRyP7J0gSNHyDcc', 'recRz3uoeSMz3Hvne', 'recVEMcwVlFGdR0md', 'recVoQvUhdPK17BW1', 'recVrCIzC46v8msXC', 'recWi53z423AOlcU9', 'recWvjGT5aEYBR0kf', 'recZJdFemSoMmGAOx', 'rec2kohUfUAumgWRd', 'rec22iiUpQKUAHako', 'rec3YlvPL3nhn2nbg', 'rec5nSFKP1iwt8SxG', 'rec5qa02ZnY813Q2k', 'rec5zF33EuO17U8MS', 'rec6uVNn7uYM1KKQq', 'rec6TUIjV8CBHZReu', 'rec7ITJ7VIOgtvvLj', 'rec7zJcr4EkoD2m2m', 'rec8lwwcfPA42MroD', 'rec9pDDGJjg7KIxbi', 'recac82gjCns3sIsx', 'reclfBMNyvzhNPfrA', 'reclNLFurKtpDbUXG', 'reclUNvSZgS44cVWd', 'recmO38KTfYJXYEfb', 'recmbAiwzmVyXbiJv', 'recnFKS0W0mzvIUS9', 'recnmE70GekcsOfhr', 'recnP4FAjBk8GMDwd', 'recosoXsmLiM3WNFM', 'recoPwjbc5x40YJCQ', 'reco3EIHyIfNxh2Ve', 'recpGSbL4OTgYBIRl', 'recpG0JbHGoZ6sOGU', 'recp9Cc8vwlU4IFtr', 'recqXOsPQM6YMfFUl', 'recrLwWUnA1k9Ixqv', 'recrjEiNsBd3CFPsI', 'recrQtiEXObDqZzT2', 'recscbFTzc4IvzVj4', 'recsWubpmN0aGiRVO', 'recuKFB1c9LeoJp2J', 'recutLVTf8Hg91tI1', 'recuOu01Wx1PSzoBx', 'recvcJEdT4xATzIgT', 'recvfGvZwSJhKwtxy', 'recwrz9IxRhsqjRLu', 'recxpFpYrqMc7E9HE', 'reczQD0dCBt3OIJgU', 'recAVL9ERQJBuxEJV', 'recBfxsV4N4W5BkaI', 'recBkSju7Amb3z57K', 'recBT6tP4XtaV0x80', 'recDKCbVs9Y6DEDhz', 'recFJZI4c0Yw6Qbzk', 'recGJR67oRLNKOGAx', 'recG2llqlOldiMYfE', 'recI3FdfxdZaryQzl', 'recJIC4YRkbTVE80z', 'recJKxhubn5iE48Ds', 'recKgrbbVoj5hylyg', 'recK2rkJ5FR4ihzT0', 'recv8pv0TUqUWz1dJ', 'reccGeA0Fw8BFLrrn', 'rec8qh8FJn89tBaIL', 'recQu5CsE6O8WXn1G', 'rec1T9hyyC3kgzU51', 'recQqmQbiw7KYDM1T', 'recKc6Aym96lQS0eq', 'recvMAV6rkSTlapTx', 'recnbD7RJYpDUuVvw', 'reclRAvNrUJg5BMlk', 'recqPWlAqJDgH9c69', 'recri8nQBWiBukd4s', 'recvfPha2eYXwXUej', 'recsPjkVDW6eR8r5N']","['recUow1lTAv9Qiv3V', 'recQPWFFWj7noN4Nd', 'rect3q1WANWYg0biY', 'recgISXyBjBqVvzuV', 'recZRGFsEJBzKofvM', 'rec3p8J4f8VlC37h8', 'recP8lYpeTKBnKaCt', 'recj6nce2HJQvhZQO', 'recemAMbhntp1TXtr', 'recLu28d8J1ZVJSYJ', 'reck5f8e5d3rxh43A', 'recXnMjnpFniojKZ9', 'rec0d9UQE6QflSqQ8', 'recFHehRXMwoYiyfy', 'recSgtOSMBYCp6QiH', 'recemx9JCSuiVCw7Z', 'rech3QgHUlRA7jtQu', 'recBEryAnF5cftKgl', 'recNYmiMp6NggczJQ', 'recHlERbE1Q46jDLb', 'recpUWbvrxn1BFMkl', 'recEHsblnemH5L26C', 'recRgdRWV3fjW14S0', 'recRNJMvo8K6rMYBY', 'recDM6DbsjyhiteVE', 'reczJCspFdg3hHW9B', 'recR3UZqNX0SyP7OO', 'recVs9Ma5bky9RjlR', 'recA2CBiwTzkP90fp', 'recRqci0h66g24JdH', 'recwMQtGCJJjvPZEA', 'recDUdsqPvyZ6pMN9', 'rec8q0MJ2cVra6gJU', 'reccjzNG6xjMejJeY', 'recTDQl7OhGepyRqg', 'rechwpwmKoEr4Og7G', 'reckZxppFbnFjr37c', 'recWlBlSp2cBlOg5G', 'rec2xS0qROjzIPcQB', 'recTlEszPfNGWXqxv', 'rec7r87evRZHnyt9B', 'recm4BkRQxZmbcmuH', 'rec62IG5dlbUjoYDZ', 'rec6o3bCzSVZlfP9G', 'recijWsZiG8V9v8Ag', 'recI7ybLTJAm0G78f', 'rec0WQwx9g884ZfTm', 'recQDKKwBIHsaDiFy', 'recXFuxR19AJX7lFu', 'recPxAVcSH1Afvyuu', 'rec3FuoDusBtpr0y7', 'recIXtmATsHimTUzG', 'recG3aknQoFlrowIR', 'reck6s4bgNSOC1xz9', 'recJKxhubn5iE48Ds', 'reco3EIHyIfNxh2Ve', 'recZhcfAm13Uticir', 'recNnZmvIE94vxXUT', 'rec9pDDGJjg7KIxbi', 'recRz3uoeSMz3Hvne', 'recqXOsPQM6YMfFUl', 'recb66fqXU2SPsHzG', 'rec9zaOVLoe0dEwO1', 'rec8qh8FJn89tBaIL', 'rec5zF33EuO17U8MS']","","","['recsbiIxirxlvB2Ap']"
"","Northern Rhodesia |  |  | Luanshya |  | ","","","Luanshya","","","Northern Rhodesia","-13.1435017","28.4163103","Southern Africa","","","","['rechCmMdNpei8Hc3B', 'recEwmO4uahaE4NY7']","","",""
"","United States | Iowa |  | Iowa City |  | ","","","Iowa City","","Iowa","United States","41.6611277","-91.5301683","North America","['recmgkTcTsz9sZ4in']","","","['recz8en6UIDlr13D8']","","",""
"","Nigeria |  |  | Kano |  | ","","","Kano","","","Nigeria","12.0021794","8.5919561","West Africa","['recZCxMI5oWuL7g9E']","","","['recl6SJoWqlpPAy4Y', 'recXwNHH0p2xysbyN']","","",""
"","United States | Rhode Island |  | Providence |  | ","","","Providence","","Rhode Island","United States","41.8239891","-71.4128343","North America","['recEOeYkvtqF6XibF']","","","","","",""
"","South Africa |  |  | Wellington |  | ","","","Wellington","","","South Africa","-33.6404794","19.0096562","Southern Africa","","","","['recXO2WiZ2k8Mqr6o', 'reczs30MBeT3af0ro', 'recnKDHRaSij50tMc']","","",""
"","England |  |  | Sussex |  | Hastings","Hastings","","Sussex","","","England","","","","","","","['recJsC2vT3V4DEdku']","","",""
"","United States  |  |  | New York City |  | ","","","New York City","","","United States ","","","","","","","['recp4rPGpIl10aeRN', 'recBOBIDfXzPE6C3O']","","","['rechKOaeJGYMWpKQO', 'recv71FvIiSybGJOr']"
"","United States |  |  |  |  | Amherst ","Amherst ","","","","","United States","","","North America","","","","['reczEex5xvn03w3cV']","","",""
"","England |  |  |  |  | Kent","Kent","","","","","England","","","United Kingdom","","","","['rec22w3NufF1SgnqT', 'recEo0CKI8eV72hLC']","","",""
"","England |  |  |  |  | Rushden","Rushden","","","","","England","","","United Kingdom","","","","['recWjVCsb39gwm99K']","","",""
"","India |  |  |  |  | Punjab","Punjab","","","","","India","","","South Asia","","","","['recJU0qNwSnLsGtzB']","","",""
"","England |  |  |  |  | Devon","Devon","","","","","England","","","United Kingdom","","","","['recr55fIJLn9e1GpJ']","","",""
"","England |  |  | London |  | Barnes","Barnes","","London","","","England","","","United Kingdom","","","['rec1e7MQAb1JaULiV']","['rec1e7MQAb1JaULiV']","","",""
"","England |  |  |  |  | Cornwall","Cornwall","","","","","England","","","United Kingdom","","","","['recVDoQ5EKoabJNlT']","","",""
"","England |  |  |  |  | Barmouth","Barmouth","","","","","England","","","United Kingdom","","","","['recpAWLanrYst2D4t']","","",""
"","England |  | Hampshire |  |  | Farenham","Farenham","","","Hampshire","","England","","","United Kingdom","","","","['recgdUFJBrUQKVtkx']","","",""
"","England |  | Surrey |  |  |  Godalming"," Godalming","","","Surrey","","England","","","United Kingdom","","","","['rec5MjpTg71aubYq5']","","",""
"","Northern Ireland |  |  |  |  | ","","","","","","Northern Ireland","","","","","","['recOuwd73L5MdEROI', 'receq6FVwrxum4Nlb']","","","",""
"","United States | Massachusetts  |  |  |  | Arlington","Arlington","","","","Massachusetts ","United States","","","North America","","","","['recpV17vXygOLZ3VE']","","",""
"","England |  | Cornwall |  |  | Truro","Truro","","","Cornwall","","England","","","United Kingdom","","","","['recOlg0xWaXPQQSwV']","","",""
"","India |  |  |  |  | Andaman Islands","Andaman Islands","","","","","India","","","South Asia","","","","['rec1p9bOwLlRLatdp']","","",""
"","England |  | South Yorkshire  | West Riding of Yorkshire  |  | Cudworth","Cudworth","","West Riding of Yorkshire ","South Yorkshire ","","England","","","United Kingdom","","","","['recgqsroPpdTi3OLU']","","",""
"","Wales | South Wales |  |  |  |  Rhondda"," Rhondda","","","","South Wales","Wales","","","United Kingdom","","","['recLImdC4kxNoSUAd']","","","",""
"","Thailand |  |  |  |  | Bangkok","Bangkok","","","","","Thailand","","","Southeast Asia","","","","['recdYlFQ3ijFwO0uH']","","",""
"","United States | Virginia |  |  |  | Richmond","Richmond","","","","Virginia","United States","","","North America","","","","['recQtA33HftfccxCZ', 'recB6btTE5MJbAFB4']","","",""
"","United States | New York |  |  |  | Syracuse","Syracuse","","","","New York","United States","","","North America","['reczC7mZF3n1O0u3h']","","","['recc3rP6lJw9lyFQC']","","",""
"","Italy |  |  |  |  | Bologna","Bologna","","","","","Italy","","","Europe","","","","['recJJzgwMqXBkW23H']","","",""
"","Australia |  |  |  |  | Brisbane","Brisbane","","","","","Australia","","","Oceania","","","","['recrZbHUPwhGFaUai']","","",""
"","Unites States | Missisipi |  |  |  | Columbus","Columbus","","","","Missisipi","Unites States","","","North America","","","","['recR7lFaDhYDXgTCs']","","",""
""," | Isreal |  |  |  | ","","","","","Isreal","","","","","","","['reck6s4bgNSOC1xz9']","","","",""
